{"type":"FeatureCollection","features":[{"type":"Feature","properties":{"name":"PGE GiEK S.A. Oddział Elektrownia Bełchatów","registry":"Poland","activity":"Combustion of fuels","activityCategory":"Combustion","nace":"Production of electricity","year":2021,"verified":33161232,"rank":1},"geometry":{"type":"Point","coordinates":[19.335242,51.268805]}},{"type":"Feature","properties":{"name":"Kraftwerk Neurath","registry":"Germany","activity":"Combustion of fuels","activityCategory":"Combustion","nace":"Production of electricity","year":2021,"verified":22075757,"rank":1},"geometry":{"type":"Point","coordinates":[6.6152797,51.0353164]}},{"type":"Feature","properties":{"name":"Kraftwerk Niederaußem","registry":"Germany","activity":"Combustion of fuels","activityCategory":"Combustion","nace":"Production of electricity","year":2021,"verified":16105086,"rank":2},"geometry":{"type":"Point","coordinates":[6.667802,50.9900859]}},{"type":"Feature","properties":{"name":"Kraftwerk Jänschwalde","registry":"Germany","activity":"Combustion of fuels","activityCategory":"Combustion","nace":"Production of electricity","year":2021,"verified":15183517,"rank":3},"geometry":{"type":"Point","coordinates":[14.4106654,51.8512162]}},{"type":"Feature","properties":{"name":"Kraftwerk  Weisweiler","registry":"Germany","activity":"Combustion of fuels","activityCategory":"Combustion","nace":"Production of electricity","year":2021,"verified":14490397,"rank":4},"geometry":{"type":"Point","coordinates":[6.3199342,50.8378273]}},{"type":"Feature","properties":{"name":"Kraftwerk Schwarze Pumpe","registry":"Germany","activity":"Combustion of fuels","activityCategory":"Combustion","nace":"Production of electricity","year":2021,"verified":11834111,"rank":5},"geometry":{"type":"Point","coordinates":[14.3540693,51.5351252]}},{"type":"Feature","properties":{"name":"ELEKTROWNIA KOZIENICE","registry":"Poland","activity":"Combustion of fuels","activityCategory":"Combustion","nace":"Production of electricity","year":2021,"verified":11593312,"rank":2},"geometry":{"type":"Point","coordinates":[21.48352,51.65895]}},{"type":"Feature","properties":{"name":"Kraftwerk Lippendorf","registry":"Germany","activity":"Combustion of fuels","activityCategory":"Combustion","nace":"Production of electricity","year":2021,"verified":11051209,"rank":6},"geometry":{"type":"Point","coordinates":[12.3810647,51.206164]}},{"type":"Feature","properties":{"name":"PGE GiEK S.A. Oddział Elektrownia Opole","registry":"Poland","activity":"Combustion of fuels","activityCategory":"Combustion","nace":"Production of electricity","year":2021,"verified":10737219,"rank":3},"geometry":{"type":"Point","coordinates":[17.87436,50.756198]}},{"type":"Feature","properties":{"name":"PGE GiEK S.A. Oddział Elektrownia Turów","registry":"Poland","activity":"Combustion of fuels","activityCategory":"Combustion","nace":"Production of electricity","year":2021,"verified":10193504,"rank":4},"geometry":{"type":"Point","coordinates":[14.9081164,50.9456692]}},{"type":"Feature","properties":{"name":"Voestalpine Stahl Linz","registry":"Austria","activity":"Production of pig iron or steel","activityCategory":"Metal","nace":"Manufacture of basic iron and steel and of ferro-alloys","year":2021,"verified":9399356,"rank":1},"geometry":{"type":"Point","coordinates":[14.3197919,48.2786073]}},{"type":"Feature","properties":{"name":"Kraftwerk Boxberg Werk IV","registry":"Germany","activity":"Combustion of fuels","activityCategory":"Combustion","nace":"Production of electricity","year":2021,"verified":8559191,"rank":7},"geometry":{"type":"Point","coordinates":[14.3822276,51.5462637]}},{"type":"Feature","properties":{"name":"Integriertes Hüttenwerk Duisburg","registry":"Germany","activity":"Production of pig iron or steel","activityCategory":"Metal","nace":"Manufacture of basic iron and steel and of ferro-alloys","year":2021,"verified":7836786,"rank":8},"geometry":{"type":"Point","coordinates":[6.7408265,51.4913158]}},{"type":"Feature","properties":{"name":"ArcelorMittal France- Dunkerque","registry":"France","activity":"Combustion of fuels","activityCategory":"Combustion","nace":"Manufacture of basic iron and steel and of ferro-alloys","year":2021,"verified":7274573,"rank":1},"geometry":{"type":"Point","coordinates":[2.2823603,51.022422]}},{"type":"Feature","properties":{"name":"Kraftwerk Boxberg Werk III","registry":"Germany","activity":"Combustion of fuels","activityCategory":"Combustion","nace":"Production of electricity","year":2021,"verified":6974582,"rank":9},"geometry":{"type":"Point","coordinates":[14.3822276,51.5462637]}},{"type":"Feature","properties":{"name":"ARCELORMITTAL MEDITERRANEE","registry":"France","activity":"Production of pig iron or steel","activityCategory":"Metal","nace":"Manufacture of basic iron and steel and of ferro-alloys","year":2021,"verified":6902092,"rank":2},"geometry":{"type":"Point","coordinates":[4.9143239,43.4745483]}},{"type":"Feature","properties":{"name":"TPP MARITSA EAST 2 EAD","registry":"Bulgaria","activity":"Combustion of fuels","activityCategory":"Combustion","nace":"Production of electricity","year":2021,"verified":6673429,"rank":1},"geometry":{"type":"Point","coordinates":[24.1975884,42.2051091]}},{"type":"Feature","properties":{"name":"TEC ContourGlobal Maritsa East 3","registry":"Bulgaria","activity":"Combustion of fuels","activityCategory":"Combustion","nace":"Production of electricity","year":2021,"verified":6377280,"rank":2},"geometry":{"type":"Point","coordinates":[23.3535311,42.6918831]}},{"type":"Feature","properties":{"name":"Instalacja do spalania paliw","registry":"Poland","activity":"Combustion of fuels","activityCategory":"Combustion","nace":"Production of electricity","year":2021,"verified":6029813,"rank":5},"geometry":{"type":"Point","coordinates":[21.3338836,50.433744]}},{"type":"Feature","properties":{"name":"Tata Steel IJmuiden bv BKG 1","registry":"Netherlands","activity":"Production of pig iron or steel","activityCategory":"Metal","nace":"Manufacture of basic iron and steel and of ferro-alloys","year":2021,"verified":5957320,"rank":1},"geometry":{"type":"Point","coordinates":[4.6236046,52.47385]}},{"type":"Feature","properties":{"name":"U. S. Steel Košice, s.r.o.","registry":"Slovakia","activity":"Combustion of fuels","activityCategory":"Combustion","nace":"Manufacture of basic iron and steel and of ferro-alloys","year":2021,"verified":5856858,"rank":1},"geometry":{"type":"Point","coordinates":[21.1924367,48.6228046]}},{"type":"Feature","properties":{"name":"Impianti di raffinazione","registry":"Italy","activity":"Refining of mineral oil","activityCategory":"Refineries","nace":"Manufacture of refined petroleum products","year":2021,"verified":5698903,"rank":1},"geometry":{"type":"Point","coordinates":[8.995987,39.009384]}},{"type":"Feature","properties":{"name":"RWE Eemshaven Centrale","registry":"Netherlands","activity":"Combustion of fuels","activityCategory":"Combustion","nace":"Production of electricity","year":2021,"verified":5306014,"rank":2},"geometry":{"type":"Point","coordinates":[6.8617562,53.4390734]}},{"type":"Feature","properties":{"name":"ARCELORMITTAL ESPAÑA, S.A.","registry":"Spain","activity":"Production of pig iron or steel","activityCategory":"Metal","nace":"Manufacture of basic iron and steel and of ferro-alloys","year":2021,"verified":5262482,"rank":1},"geometry":{"type":"Point","coordinates":[-5.8922134,43.558525]}},{"type":"Feature","properties":{"name":"Stabilimento di Taranto","registry":"Italy","activity":"Production of pig iron or steel","activityCategory":"Metal","nace":"Manufacture of basic iron and steel and of ferro-alloys","year":2021,"verified":5246390,"rank":2},"geometry":{"type":"Point","coordinates":[17.2147064,40.4919978]}},{"type":"Feature","properties":{"name":"EDP España, S.A. - Aboño 1","registry":"Spain","activity":"Combustion of fuels","activityCategory":"Combustion","nace":"Production of electricity","year":2021,"verified":5175651,"rank":2},"geometry":{"type":"Point","coordinates":[-5.7183006,43.5647589]}},{"type":"Feature","properties":{"name":"PGE GiEK S.A. Oddział w Rybniku","registry":"Poland","activity":"Combustion of fuels","activityCategory":"Combustion","nace":"Production of electricity","year":2021,"verified":5070085,"rank":6},"geometry":{"type":"Point","coordinates":[18.5359341,50.1338947]}},{"type":"Feature","properties":{"name":"Grosskraftwerk Mannheim","registry":"Germany","activity":"Combustion of fuels","activityCategory":"Combustion","nace":"Production of electricity","year":2021,"verified":5004399,"rank":10},"geometry":{"type":"Point","coordinates":[8.4923937,49.4469235]}},{"type":"Feature","properties":{"name":"Glocke Duisburg","registry":"Germany","activity":"Production of pig iron or steel","activityCategory":"Metal","nace":"Manufacture of basic iron and steel and of ferro-alloys","year":2021,"verified":4894276,"rank":11},"geometry":{"type":"Point","coordinates":[6.7266738,51.3703495]}},{"type":"Feature","properties":{"name":"ΑΤΜΟΗΛΕΚΤΡΙΚΟΣ ΣΤΑΘΜΟΣ ΑΗΣ ΑΓΙΟΥ ΔΗΜΗΤΡΙΟΥ","registry":"Greece","activity":"Combustion of fuels","activityCategory":"Combustion","nace":"Production of electricity","year":2021,"verified":4537750,"rank":1},"geometry":{"type":"Point","coordinates":[21.7945046,40.2969234]}},{"type":"Feature","properties":{"name":"Chemelot BKG 01","registry":"Netherlands","activity":"Combustion of fuels","activityCategory":"Combustion","nace":"Manufacture of other organic basic chemicals","year":2021,"verified":4501697,"rank":3},"geometry":{"type":"Point","coordinates":[5.821449,50.9755679]}},{"type":"Feature","properties":{"name":"ETF - CENTRALE DK6","registry":"France","activity":"Combustion of fuels","activityCategory":"Combustion","nace":"Production of electricity","year":2021,"verified":4441661,"rank":3},"geometry":{"type":"Point","coordinates":[2.3284088,51.0482216]}},{"type":"Feature","properties":{"name":"TPP AES-3C Maritza East 1","registry":"Bulgaria","activity":"Combustion of fuels","activityCategory":"Combustion","nace":"Steam and air conditioning supply","year":2021,"verified":4429287,"rank":3},"geometry":{"type":"Point","coordinates":[25.8651308,42.1357845]}},{"type":"Feature","properties":{"name":"Elektrárna Počerady","registry":"Czech Republic","activity":"Combustion of fuels","activityCategory":"Combustion","nace":"Electric power generation, transmission and distribution","year":2021,"verified":4419807,"rank":1},"geometry":{"type":"Point","coordinates":[13.6874593,50.4180537]}},{"type":"Feature","properties":{"name":"Kraftwerk Schkopau","registry":"Germany","activity":"Combustion of fuels","activityCategory":"Combustion","nace":"Production of electricity","year":2021,"verified":4409079,"rank":12},"geometry":{"type":"Point","coordinates":[11.9488631,51.4010315]}},{"type":"Feature","properties":{"name":"ArcelorMittal Italy Energy srl","registry":"Italy","activity":"Combustion of fuels","activityCategory":"Combustion","nace":"Production of electricity","year":2021,"verified":4405242,"rank":3},"geometry":{"type":"Point","coordinates":[17.2147064,40.4919978]}},{"type":"Feature","properties":{"name":"Liberty Galati SA","registry":"Romania","activity":"Production of pig iron or steel","activityCategory":"Metal","nace":"Manufacture of basic iron and steel and of ferro-alloys","year":2021,"verified":4394990,"rank":1},"geometry":{"type":"Point","coordinates":[27.9709465,45.4584946]}},{"type":"Feature","properties":{"name":"Shell Nederland Raffinaderij B.V.","registry":"Netherlands","activity":"Mineral oil refineries","activityCategory":"Refineries","nace":"Manufacture of refined petroleum products","year":2021,"verified":4377123,"rank":4},"geometry":{"type":"Point","coordinates":[4.3466309,51.8760535]}},{"type":"Feature","properties":{"name":"Roheisenerzeugung Dillingen","registry":"Germany","activity":"Production of pig iron or steel","activityCategory":"Metal","nace":"Manufacture of basic iron and steel and of ferro-alloys","year":2021,"verified":4283764,"rank":13},"geometry":{"type":"Point","coordinates":[6.7317259,49.3553758]}},{"type":"Feature","properties":{"name":"Raahen terästehdas","registry":"Finland","activity":"Installations for the production of pig iron or steel (primary or secondary fusion) including continuous casting","activityCategory":"Metal","nace":"Manufacture of basic iron and steel and of ferro-alloys","year":2021,"verified":4244717,"rank":1},"geometry":{"type":"Point","coordinates":[24.4507304,64.6660369]}},{"type":"Feature","properties":{"name":"RDK Karlsruhe","registry":"Germany","activity":"Combustion of fuels","activityCategory":"Combustion","nace":"Production of electricity","year":2021,"verified":4156873,"rank":14},"geometry":{"type":"Point","coordinates":[8.3063734,49.0140614]}},{"type":"Feature","properties":{"name":"CENTRALE TERMOELETTRICA DI TORREVALDALIGA NORD","registry":"Italy","activity":"Combustion of fuels","activityCategory":"Combustion","nace":"Production of electricity","year":2021,"verified":4121013,"rank":4},"geometry":{"type":"Point","coordinates":[11.770036,42.1184571]}},{"type":"Feature","properties":{"name":"Vattenfall Power Velsen","registry":"Netherlands","activity":"Combustion of fuels","activityCategory":"Combustion","nace":"Electricity, gas, steam and air conditioning supply","year":2021,"verified":4026054,"rank":5},"geometry":{"type":"Point","coordinates":[4.6343695,52.4715238]}},{"type":"Feature","properties":{"name":"Uniper Centrale Maasvlakte","registry":"Netherlands","activity":"Combustion of fuels","activityCategory":"Combustion","nace":"Electric power generation, transmission and distribution","year":2021,"verified":3927590,"rank":6},"geometry":{"type":"Point","coordinates":[4.0232941,51.9533451]}},{"type":"Feature","properties":{"name":"Dow Benelux B.V. BKG 1","registry":"Netherlands","activity":"Production of bulk chemicals","activityCategory":"Chemicals","nace":"Manufacture of other organic basic chemicals","year":2021,"verified":3911793,"rank":7},"geometry":{"type":"Point","coordinates":[3.7913142,51.3345937]}},{"type":"Feature","properties":{"name":"TAURON Wytwarzanie SA O. Elektrownia Jaworzno III","registry":"Poland","activity":"Combustion of fuels","activityCategory":"Combustion","nace":"Production of electricity","year":2021,"verified":3891062,"rank":7},"geometry":{"type":"Point","coordinates":[19.2051617,50.2030465]}},{"type":"Feature","properties":{"name":"CENTRALE TERMOELETTRICA DI  BRINDISI SUD","registry":"Italy","activity":"Combustion of fuels","activityCategory":"Combustion","nace":"Production of electricity","year":2021,"verified":3855797,"rank":5},"geometry":{"type":"Point","coordinates":[17.9469496,40.5444849]}},{"type":"Feature","properties":{"name":"SC C.E. OLTENIA SA - SUC. ELECTROCENTRALE ROVINARI","registry":"Romania","activity":"Combustion of fuels","activityCategory":"Combustion","nace":"Production of electricity","year":2021,"verified":3833007,"rank":2},"geometry":{"type":"Point","coordinates":[23.1400742,44.9083222]}},{"type":"Feature","properties":{"name":"Kraftwerk Datteln Block 4","registry":"Germany","activity":"Combustion of fuels","activityCategory":"Combustion","nace":"Electric power generation, transmission and distribution","year":2021,"verified":3815258,"rank":15},"geometry":{"type":"Point","coordinates":[7.34352,51.63476]}},{"type":"Feature","properties":{"name":"TotalEnergies Refinery Antwerp","registry":"Belgium","activity":"Refining of mineral oil","activityCategory":"Refineries","nace":"Manufacture of refined petroleum products","year":2021,"verified":3788472,"rank":1},"geometry":{"type":"Point","coordinates":[4.3269957,51.2737269]}},{"type":"Feature","properties":{"name":"ČEZ, a. s. - Elektrárna Ledvice","registry":"Czech Republic","activity":"Combustion of fuels","activityCategory":"Combustion","nace":"Electric power generation, transmission and distribution","year":2021,"verified":3781199,"rank":2},"geometry":{"type":"Point","coordinates":[14.4388741,50.0433092]}},{"type":"Feature","properties":{"name":"Glocke Salzgitter","registry":"Germany","activity":"Production of pig iron or steel","activityCategory":"Metal","nace":"Manufacture of basic iron and steel and of ferro-alloys","year":2021,"verified":3735956,"rank":16},"geometry":{"type":"Point","coordinates":[10.4309086,52.1610603]}},{"type":"Feature","properties":{"name":"Kraftwerk Hallendorf","registry":"Germany","activity":"Combustion of fuels","activityCategory":"Combustion","nace":"Production of electricity","year":2021,"verified":3639988,"rank":17},"geometry":{"type":"Point","coordinates":[10.4309086,52.1610603]}},{"type":"Feature","properties":{"name":"Electrabel - Knippegroen","registry":"Belgium","activity":"Combustion of fuels","activityCategory":"Combustion","nace":"Production of electricity","year":2021,"verified":3598491,"rank":2},"geometry":{"type":"Point","coordinates":[3.8093713,51.1570477]}},{"type":"Feature","properties":{"name":"ČEZ, a. s. - Elektrárna Prunéřov 2","registry":"Czech Republic","activity":"Combustion of fuels","activityCategory":"Combustion","nace":"Electric power generation, transmission and distribution","year":2021,"verified":3494895,"rank":3},"geometry":{"type":"Point","coordinates":[13.2713221,50.3759918]}},{"type":"Feature","properties":{"name":"Zakład Wytwarzania Nowa","registry":"Poland","activity":"Combustion of fuels","activityCategory":"Combustion","nace":"Production of electricity","year":2021,"verified":3483560,"rank":8},"geometry":{"type":"Point","coordinates":[19.2690252,50.3455391]}},{"type":"Feature","properties":{"name":"PCK Raffinerie Glocke Schwedt","registry":"Germany","activity":"Refining of mineral oil","activityCategory":"Refineries","nace":"Manufacture of refined petroleum products","year":2021,"verified":3480163,"rank":18},"geometry":{"type":"Point","coordinates":[14.2435621,53.0780699]}},{"type":"Feature","properties":{"name":"MVM Mátra Energia ZRt. Visontai Erőmű","registry":"Hungary","activity":"Combustion of fuels","activityCategory":"Combustion","nace":"Production of electricity","year":2021,"verified":3472486,"rank":1},"geometry":{"type":"Point","coordinates":[20.0493087,47.793754]}},{"type":"Feature","properties":{"name":"ČEZ, a. s. - Elektrárna Tušimice 2","registry":"Czech Republic","activity":"Combustion of fuels","activityCategory":"Combustion","nace":"Electric power generation, transmission and distribution","year":2021,"verified":3399410,"rank":4},"geometry":{"type":"Point","coordinates":[13.3362428,50.3809443]}},{"type":"Feature","properties":{"name":"Elektrárna Chvaletice","registry":"Czech Republic","activity":"Combustion of fuels","activityCategory":"Combustion","nace":"Electric power generation, transmission and distribution","year":2021,"verified":3398295,"rank":5},"geometry":{"type":"Point","coordinates":[15.4498576,50.0293085]}},{"type":"Feature","properties":{"name":"Termoelektrarna Šoštanj d.o.o.","registry":"Slovenia","activity":"Combustion of fuels","activityCategory":"Combustion","nace":"Production of electricity","year":2021,"verified":3375040,"rank":1},"geometry":{"type":"Point","coordinates":[15.0514762,46.3740244]}},{"type":"Feature","properties":{"name":"ESB Moneypoint Generating Station","registry":"Ireland","activity":"Combustion of fuels","activityCategory":"Combustion","nace":"Production of electricity","year":2021,"verified":3228756,"rank":1},"geometry":{"type":"Point","coordinates":[-9.42428,52.6070026]}},{"type":"Feature","properties":{"name":"Yara Sluiskil B.V. BKG 1","registry":"Netherlands","activity":"Production of ammonia","activityCategory":"Chemicals","nace":"Manufacture of fertilisers and nitrogen compounds","year":2021,"verified":3190000,"rank":8},"geometry":{"type":"Point","coordinates":[3.8497955,51.2721691]}},{"type":"Feature","properties":{"name":"Kraftwerk Huckingen","registry":"Germany","activity":"Combustion of fuels","activityCategory":"Combustion","nace":"Production of electricity","year":2021,"verified":3173542,"rank":19},"geometry":{"type":"Point","coordinates":[6.7266738,51.3703495]}},{"type":"Feature","properties":{"name":"SSAB Luleå","registry":"Sweden","activity":"Production of pig iron or steel","activityCategory":"Metal","nace":"Manufacture of basic iron and steel and of ferro-alloys","year":2021,"verified":3163263,"rank":1},"geometry":{"type":"Point","coordinates":[22.2017505,65.5602203]}},{"type":"Feature","properties":{"name":"Dampfkesselanlage Duisburg Hamborn","registry":"Germany","activity":"Combustion of fuels","activityCategory":"Combustion","nace":"Electric power generation, transmission and distribution","year":2021,"verified":3105846,"rank":20},"geometry":{"type":"Point","coordinates":[6.7408265,51.4913158]}},{"type":"Feature","properties":{"name":"ELEKTROCIEPŁOWNIA SIEKIERKI","registry":"Poland","activity":"Combustion of fuels","activityCategory":"Combustion","nace":"Steam and air conditioning supply","year":2021,"verified":3101120,"rank":9},"geometry":{"type":"Point","coordinates":[21.0886322,52.1925516]}},{"type":"Feature","properties":{"name":"Kraftwerk Scholven","registry":"Germany","activity":"Combustion of fuels","activityCategory":"Combustion","nace":"Production of electricity","year":2021,"verified":3090611,"rank":21},"geometry":{"type":"Point","coordinates":[7.004523,51.5970045]}},{"type":"Feature","properties":{"name":"Liberty Ostrava a.s.","registry":"Czech Republic","activity":"Combustion of fuels","activityCategory":"Combustion","nace":"Manufacture of basic iron and steel and of ferro-alloys","year":2021,"verified":3083425,"rank":6},"geometry":{"type":"Point","coordinates":[18.3006217,49.7963997]}},{"type":"Feature","properties":{"name":"Kohlekraftwerk Lünen - TKL","registry":"Germany","activity":"Combustion of fuels","activityCategory":"Combustion","nace":"Electricity, gas, steam and air conditioning supply","year":2021,"verified":3071500,"rank":22},"geometry":{"type":"Point","coordinates":[7.4652485,51.612515]}},{"type":"Feature","properties":{"name":"RUHR OEL GmbH - Werk Scholven - CO2-Glocke","registry":"Germany","activity":"Refining of mineral oil","activityCategory":"Refineries","nace":"Manufacture of refined petroleum products","year":2021,"verified":3010072,"rank":23},"geometry":{"type":"Point","coordinates":[7.0337238,51.5968243]}},{"type":"Feature","properties":{"name":"voestalpine Stahl Donawitz GmbH","registry":"Austria","activity":"Production of pig iron or steel","activityCategory":"Metal","nace":"Manufacture of basic iron and steel and of ferro-alloys","year":2021,"verified":2958608,"rank":2},"geometry":{"type":"Point","coordinates":[15.0597356,47.3797905]}},{"type":"Feature","properties":{"name":"OMV Raffinerie Schwechat","registry":"Austria","activity":"Refining of mineral oil","activityCategory":"Refineries","nace":"Manufacture of refined petroleum products","year":2021,"verified":2749644,"rank":3},"geometry":{"type":"Point","coordinates":[16.4947191,48.1481771]}},{"type":"Feature","properties":{"name":"TAURON Wytwarzanie SA O. Elektrownia Łaziska","registry":"Poland","activity":"Combustion of fuels","activityCategory":"Combustion","nace":"Production of electricity","year":2021,"verified":2673905,"rank":10},"geometry":{"type":"Point","coordinates":[18.8459864,50.1314565]}},{"type":"Feature","properties":{"name":"ELEKTROWNIA PĄTNÓW","registry":"Poland","activity":"Combustion of fuels","activityCategory":"Combustion","nace":"Production of electricity","year":2021,"verified":2660918,"rank":11},"geometry":{"type":"Point","coordinates":[18.2318854,52.3047997]}},{"type":"Feature","properties":{"name":"ELEKTROCIEPŁOWNIA","registry":"Poland","activity":"Combustion of fuels","activityCategory":"Combustion","nace":"Electricity, gas, steam and air conditioning supply","year":2021,"verified":2647189,"rank":12},"geometry":{"type":"Point","coordinates":[19.655524,52.5887593]}},{"type":"Feature","properties":{"name":"EniPower S.p.A. - Stabilimento di Brindisi","registry":"Italy","activity":"Combustion of fuels","activityCategory":"Combustion","nace":"Production of electricity","year":2021,"verified":2622785,"rank":6},"geometry":{"type":"Point","coordinates":[17.9567946,40.6304046]}},{"type":"Feature","properties":{"name":"Eesti Elektrijaam","registry":"Estonia","activity":"Combustion of fuels","activityCategory":"Combustion","nace":"Production of electricity","year":2021,"verified":2607958,"rank":1},"geometry":{"type":"Point","coordinates":[27.8948767,59.272913]}},{"type":"Feature","properties":{"name":"GÓRAŻDŻE CEMENT SPÓŁKA AKCYJNA","registry":"Poland","activity":"Production of cement clinker","activityCategory":"Cement/Lime","nace":"Manufacture of cement","year":2021,"verified":2577035,"rank":13},"geometry":{"type":"Point","coordinates":[17.973278,50.532965]}},{"type":"Feature","properties":{"name":"Shell Nederland Chemie B.V., vest. Moerdijk BKG 1","registry":"Netherlands","activity":"Combustion of fuels","activityCategory":"Combustion","nace":"Manufacture of other organic basic chemicals","year":2021,"verified":2571692,"rank":9},"geometry":{"type":"Point","coordinates":[4.5694758,51.6816518]}},{"type":"Feature","properties":{"name":"Rafineria","registry":"Poland","activity":"Refining of mineral oil","activityCategory":"Refineries","nace":"Manufacture of refined petroleum products","year":2021,"verified":2556613,"rank":14},"geometry":{"type":"Point","coordinates":[19.655524,52.5887593]}},{"type":"Feature","properties":{"name":"WIELKI PIEC STALOWNIA ARCELORMITTAL DĄBROWA GÓRN.","registry":"Poland","activity":"Production of pig iron or steel","activityCategory":"Metal","nace":"Manufacture of basic iron and steel and of ferro-alloys","year":2021,"verified":2554130,"rank":15},"geometry":{"type":"Point","coordinates":[19.2690252,50.3455391]}},{"type":"Feature","properties":{"name":"Třinecké železárny","registry":"Czech Republic","activity":"Production of pig iron or steel","activityCategory":"Metal","nace":"Manufacture of basic iron and steel and of ferro-alloys","year":2021,"verified":2532658,"rank":7},"geometry":{"type":"Point","coordinates":[18.6472395,49.6881398]}},{"type":"Feature","properties":{"name":"Block 4 Bremen","registry":"Germany","activity":"Combustion of fuels","activityCategory":"Combustion","nace":"Production of electricity","year":2021,"verified":2519316,"rank":24},"geometry":{"type":"Point","coordinates":[8.7120512,53.139791]}},{"type":"Feature","properties":{"name":"UNIPETROL - Petrochemie","registry":"Czech Republic","activity":"Combustion of fuels","activityCategory":"Combustion","nace":"Manufacture of other organic basic chemicals","year":2021,"verified":2487570,"rank":8},"geometry":{"type":"Point","coordinates":[13.6040808,50.554912]}},{"type":"Feature","properties":{"name":"Werk 1 und Werk 2","registry":"Germany","activity":"Refining of mineral oil","activityCategory":"Refineries","nace":"Manufacture of refined petroleum products","year":2021,"verified":2477090,"rank":25},"geometry":{"type":"Point","coordinates":[8.33646,49.05311]}},{"type":"Feature","properties":{"name":"Kraftwerk  Hamborn Block 5","registry":"Germany","activity":"Combustion of fuels","activityCategory":"Combustion","nace":"Production of electricity","year":2021,"verified":2406635,"rank":26},"geometry":{"type":"Point","coordinates":[6.7408265,51.4913158]}},{"type":"Feature","properties":{"name":"S Complexul Energetic Oltenia SA-SE Turceni","registry":"Romania","activity":"Combustion of fuels","activityCategory":"Combustion","nace":"Production of electricity","year":2021,"verified":2400383,"rank":3},"geometry":{"type":"Point","coordinates":[23.374199,44.674076]}},{"type":"Feature","properties":{"name":"EDF Centrale de Cordemais","registry":"France","activity":"Combustion of fuels","activityCategory":"Combustion","nace":"Production of electricity","year":2021,"verified":2394059,"rank":4},"geometry":{"type":"Point","coordinates":[-1.8750965,47.2778366]}},{"type":"Feature","properties":{"name":"Centrale termoelettrica di fiumesanto","registry":"Italy","activity":"Combustion installations with a rated thermal input exceeding 20 MW","activityCategory":"Combustion","nace":"Production of electricity","year":2021,"verified":2391215,"rank":7},"geometry":{"type":"Point","coordinates":[8.5481588,40.7331166]}},{"type":"Feature","properties":{"name":"ESSO Raffinaderij Rotterdam","registry":"Netherlands","activity":"Refining of mineral oil","activityCategory":"Refineries","nace":"Manufacture of refined petroleum products","year":2021,"verified":2380054,"rank":10},"geometry":{"type":"Point","coordinates":[4.3008665,51.8703507]}},{"type":"Feature","properties":{"name":"Porvoon jalostamo","registry":"Finland","activity":"Mineral oil refineries","activityCategory":"Refineries","nace":"Manufacture of refined petroleum products","year":2021,"verified":2365210,"rank":2},"geometry":{"type":"Point","coordinates":[25.748151,61.92411]}},{"type":"Feature","properties":{"name":"Energa ELEKTROWNIE OSTROŁĘKA SA","registry":"Poland","activity":"Combustion of fuels","activityCategory":"Combustion","nace":"Production of electricity","year":2021,"verified":2329460,"rank":16},"geometry":{"type":"Point","coordinates":[21.6131539,53.1043038]}},{"type":"Feature","properties":{"name":"Refinaria de Sines","registry":"Portugal","activity":"Refining of mineral oil","activityCategory":"Refineries","nace":"Manufacture of refined petroleum products","year":2021,"verified":2301572,"rank":1},"geometry":{"type":"Point","coordinates":[-8.8717981,37.9627051]}},{"type":"Feature","properties":{"name":"Repsol Petróleo S.A.","registry":"Spain","activity":"Refining of mineral oil","activityCategory":"Refineries","nace":"Manufacture of refined petroleum products","year":2021,"verified":2301019,"rank":3},"geometry":{"type":"Point","coordinates":[-0.9099551,37.5792509]}},{"type":"Feature","properties":{"name":"PGE GiEK S.A. Oddział Zespół Elektrowni Dolna Odra","registry":"Poland","activity":"Combustion of fuels","activityCategory":"Combustion","nace":"Production of electricity","year":2021,"verified":2269558,"rank":17},"geometry":{"type":"Point","coordinates":[14.4653167,53.2070295]}},{"type":"Feature","properties":{"name":"Einheitliche Anlage Bremen","registry":"Germany","activity":"Production of pig iron or steel","activityCategory":"Metal","nace":"Manufacture of basic iron and steel and of ferro-alloys","year":2021,"verified":2267241,"rank":27},"geometry":{"type":"Point","coordinates":[8.6834813,53.1409357]}},{"type":"Feature","properties":{"name":"Zakłady Azotowe Puławy S.A.","registry":"Poland","activity":"Production of bulk chemicals","activityCategory":"Chemicals","nace":"Manufacture of fertilisers and nitrogen compounds","year":2021,"verified":2251769,"rank":18},"geometry":{"type":"Point","coordinates":[21.9808619,51.4518429]}},{"type":"Feature","properties":{"name":"Aalborg Portland A/S","registry":"Denmark","activity":"Production of cement clinker","activityCategory":"Cement/Lime","nace":"Manufacture of cement","year":2021,"verified":2248048,"rank":1},"geometry":{"type":"Point","coordinates":[9.9724938,57.0623443]}},{"type":"Feature","properties":{"name":"Repsol Petróleo S.A. - Instalación de Tarragona","registry":"Spain","activity":"Refining of mineral oil","activityCategory":"Refineries","nace":"Manufacture of refined petroleum products","year":2021,"verified":2243777,"rank":4},"geometry":{"type":"Point","coordinates":[1.2250727,41.1729393]}},{"type":"Feature","properties":{"name":"Sokolovská uhelná - Teplárna a PPC Vřesová","registry":"Czech Republic","activity":"Combustion of fuels","activityCategory":"Combustion","nace":"Steam and air conditioning supply","year":2021,"verified":2237283,"rank":9},"geometry":{"type":"Point","coordinates":[12.6909007,50.2588355]}},{"type":"Feature","properties":{"name":"Katilinė,amoniako paleidimo katilinės Nr.1 ir Nr.2","registry":"Lithuania","activity":"Production of ammonia","activityCategory":"Chemicals","nace":"Manufacture of fertilisers and nitrogen compounds","year":2021,"verified":2208916,"rank":1},"geometry":{"type":"Point","coordinates":[24.3326259,55.0673849]}},{"type":"Feature","properties":{"name":"ELEKTROWNIA PĄTNÓW II","registry":"Poland","activity":"Combustion of fuels","activityCategory":"Combustion","nace":"Production of electricity","year":2021,"verified":2207942,"rank":19},"geometry":{"type":"Point","coordinates":[18.2318854,52.3047997]}},{"type":"Feature","properties":{"name":"Esso Raffinaderij","registry":"Belgium","activity":"Refining of mineral oil","activityCategory":"Refineries","nace":"Manufacture of refined petroleum products","year":2021,"verified":2196298,"rank":3},"geometry":{"type":"Point","coordinates":[4.3448672,51.2569663]}},{"type":"Feature","properties":{"name":"ΜΟΤΟΡ ΟΪΛ (ΕΛΛΑΣ) - ΔΙΥΛΙΣΤΗΡΙΑ ΚΟΡΙΝΘΟΥ Α.Ε.","registry":"Greece","activity":"Refining of mineral oil","activityCategory":"Refineries","nace":"Manufacture of refined petroleum products","year":2021,"verified":2139025,"rank":2},"geometry":{"type":"Point","coordinates":[22.9472987,37.9406548]}},{"type":"Feature","properties":{"name":"BP Raffinaderij Rotterdam B.V.","registry":"Netherlands","activity":"Refining of mineral oil","activityCategory":"Refineries","nace":"Manufacture of refined petroleum products","year":2021,"verified":2117592,"rank":11},"geometry":{"type":"Point","coordinates":[4.1130531,51.9391364]}},{"type":"Feature","properties":{"name":"Heizkraftwerk Heilbronn","registry":"Germany","activity":"Combustion of fuels","activityCategory":"Combustion","nace":"Production of electricity","year":2021,"verified":2110585,"rank":28},"geometry":{"type":"Point","coordinates":[9.2079503,49.17108]}},{"type":"Feature","properties":{"name":"ELEKTROCIEPŁOWNIA ŻERAŃ","registry":"Poland","activity":"Combustion of fuels","activityCategory":"Combustion","nace":"Steam and air conditioning supply","year":2021,"verified":2090497,"rank":20},"geometry":{"type":"Point","coordinates":[20.9985763,52.2930197]}},{"type":"Feature","properties":{"name":"Heizkraftwerk Walsum","registry":"Germany","activity":"Combustion of fuels","activityCategory":"Combustion","nace":"Production of electricity","year":2021,"verified":2085544,"rank":29},"geometry":{"type":"Point","coordinates":[6.7184471,51.526775]}},{"type":"Feature","properties":{"name":"Kraftwerk Rostock","registry":"Germany","activity":"Combustion of fuels","activityCategory":"Combustion","nace":"Production of electricity","year":2021,"verified":2075837,"rank":30},"geometry":{"type":"Point","coordinates":[12.12918,54.141205]}},{"type":"Feature","properties":{"name":"TAMEH Czech","registry":"Czech Republic","activity":"Combustion of fuels","activityCategory":"Combustion","nace":"Steam and air conditioning supply","year":2021,"verified":2040795,"rank":10},"geometry":{"type":"Point","coordinates":[18.3031154,49.7963502]}},{"type":"Feature","properties":{"name":"Raffneria di Augusta","registry":"Italy","activity":"Refining of mineral oil","activityCategory":"Refineries","nace":"Manufacture of refined petroleum products","year":2021,"verified":2008361,"rank":8},"geometry":{"type":"Point","coordinates":[15.1705457,37.2220076]}},{"type":"Feature","properties":{"name":"Petróleos del Norte S.A.","registry":"Spain","activity":"Refining of mineral oil","activityCategory":"Refineries","nace":"Manufacture of refined petroleum products","year":2021,"verified":2003935,"rank":5},"geometry":{"type":"Point","coordinates":[-3.1092946,43.3239044]}},{"type":"Feature","properties":{"name":"Equinor ASA Raffineri Mongstad","registry":"Norway","activity":"Refining of mineral oil","activityCategory":"Refineries","nace":"Manufacture of refined petroleum products","year":2021,"verified":1993700,"rank":1},"geometry":{"type":"Point","coordinates":[5.7185511,58.8927905]}},{"type":"Feature","properties":{"name":"EniPower S.p.A.- Stabilimento di Ferrera Erbognone","registry":"Italy","activity":"Combustion of fuels","activityCategory":"Combustion","nace":"Production of electricity","year":2021,"verified":1986653,"rank":9},"geometry":{"type":"Point","coordinates":[8.8608282,45.1114029]}},{"type":"Feature","properties":{"name":"ΕΛΛΗΝΙΚΑ ΠΕΤΡΕΛΑΙΑ Α.Ε. ΔΙΥΛΙΣΤΗΡΙΟ ΕΛΕΥΣΙΝΑΣ","registry":"Greece","activity":"Refining of mineral oil","activityCategory":"Refineries","nace":"Manufacture of refined petroleum products","year":2021,"verified":1984311,"rank":3},"geometry":{"type":"Point","coordinates":[23.5545777,38.0484706]}},{"type":"Feature","properties":{"name":"EniPower S.p.A. - Stabilimento di Ravenna","registry":"Italy","activity":"Combustion installations with a rated thermal input exceeding 20 MW","activityCategory":"Combustion","nace":"Production of electricity","year":2021,"verified":1922386,"rank":10},"geometry":{"type":"Point","coordinates":[12.2315129,44.4431986]}},{"type":"Feature","properties":{"name":"Steinkohlekraftwerk Wilhelmshaven","registry":"Germany","activity":"Combustion of fuels","activityCategory":"Combustion","nace":"Production of electricity","year":2021,"verified":1920025,"rank":31},"geometry":{"type":"Point","coordinates":[8.1326971,53.579168]}},{"type":"Feature","properties":{"name":"CEMENT OŻARÓW S.A. -Zakład Cementownia Ożarów","registry":"Poland","activity":"Production of cement clinker","activityCategory":"Cement/Lime","nace":"Manufacture of cement","year":2021,"verified":1898857,"rank":21},"geometry":{"type":"Point","coordinates":[21.6796155,50.929127]}},{"type":"Feature","properties":{"name":"Kokerei Duisburg Schwelgern","registry":"Germany","activity":"Production of coke","activityCategory":"Coke ovens","nace":"Manufacture of coke oven products","year":2021,"verified":1897444,"rank":32},"geometry":{"type":"Point","coordinates":[6.7300869,51.4984818]}},{"type":"Feature","properties":{"name":"EAC Vasilikos Power Station","registry":"Cyprus","activity":"Combustion installations with a rated thermal input exceeding 20 MW","activityCategory":"Combustion","nace":"Production of electricity","year":2021,"verified":1894022,"rank":1},"geometry":{"type":"Point","coordinates":[33.0564103,34.7022123]}},{"type":"Feature","properties":{"name":"RAFFINERIE DE GRAVENCHON","registry":"France","activity":"Refining of mineral oil","activityCategory":"Refineries","nace":"Manufacture of refined petroleum products","year":2021,"verified":1882721,"rank":5},"geometry":{"type":"Point","coordinates":[0.55243,49.48118]}},{"type":"Feature","properties":{"name":"PGE Energia Ciepła S.A. Oddział nr 1 w Krakowie","registry":"Poland","activity":"Combustion of fuels","activityCategory":"Combustion","nace":"Steam and air conditioning supply","year":2021,"verified":1855058,"rank":22},"geometry":{"type":"Point","coordinates":[20.0033562,50.0539198]}},{"type":"Feature","properties":{"name":"Power Plant Rotterdam B.V.","registry":"Netherlands","activity":"Combustion of fuels","activityCategory":"Combustion","nace":"Production of electricity","year":2021,"verified":1849985,"rank":12},"geometry":{"type":"Point","coordinates":[4.0634699,51.9440088]}},{"type":"Feature","properties":{"name":"CENTRALE TERMOELETTRICA DI  LA CASELLA","registry":"Italy","activity":"Combustion of fuels","activityCategory":"Combustion","nace":"Production of electricity","year":2021,"verified":1844305,"rank":11},"geometry":{"type":"Point","coordinates":[9.49995,45.063925]}},{"type":"Feature","properties":{"name":"Solvay Sodi JSCo","registry":"Bulgaria","activity":"Production of soda ash and sodium bicarbonate","activityCategory":"Chemicals","nace":"Manufacture of other inorganic basic chemicals","year":2021,"verified":1827869,"rank":4},"geometry":{"type":"Point","coordinates":[27.6540855,43.2217497]}},{"type":"Feature","properties":{"name":"Raffinerie de Normandie (RN)","registry":"France","activity":"Refining of mineral oil","activityCategory":"Refineries","nace":"Manufacture of refined petroleum products","year":2021,"verified":1806568,"rank":6},"geometry":{"type":"Point","coordinates":[0.2354024,49.4828428]}},{"type":"Feature","properties":{"name":"Centrale Termoelettrica di Ostiglia","registry":"Italy","activity":"Combustion of fuels","activityCategory":"Combustion","nace":"Production of electricity","year":2021,"verified":1795088,"rank":12},"geometry":{"type":"Point","coordinates":[11.1363594,45.0700949]}},{"type":"Feature","properties":{"name":"Raffinerie Wesseling","registry":"Germany","activity":"Refining of mineral oil","activityCategory":"Refineries","nace":"Manufacture of refined petroleum products","year":2021,"verified":1781694,"rank":33},"geometry":{"type":"Point","coordinates":[7.0065099,50.8144245]}},{"type":"Feature","properties":{"name":"Central Termoeléctrica de Sines","registry":"Portugal","activity":"Combustion of fuels","activityCategory":"Combustion","nace":"Production of electricity","year":2020,"verified":1776408,"rank":2},"geometry":{"type":"Point","coordinates":[-8.8052778,37.9227778]}},{"type":"Feature","properties":{"name":"Centrala de Cogenerare cu Ciclu Combinat- Brazi","registry":"Romania","activity":"Combustion of fuels","activityCategory":"Combustion","nace":"Production of electricity","year":2021,"verified":1749063,"rank":4},"geometry":{"type":"Point","coordinates":[25.9843438,44.8743876]}},{"type":"Feature","properties":{"name":"Teplárna Kladno - Elektrárna Kladno","registry":"Czech Republic","activity":"Combustion of fuels","activityCategory":"Combustion","nace":"Production of electricity","year":2021,"verified":1744353,"rank":11},"geometry":{"type":"Point","coordinates":[14.1257043,50.1537201]}},{"type":"Feature","properties":{"name":"Vattenfall Power IJmond","registry":"Netherlands","activity":"Combustion of fuels","activityCategory":"Combustion","nace":"Electricity, gas, steam and air conditioning supply","year":2021,"verified":1738870,"rank":13},"geometry":{"type":"Point","coordinates":[4.6343695,52.4715238]}},{"type":"Feature","properties":{"name":"Unión Eléctr. de Canarias Generación-CT Granadilla","registry":"Spain","activity":"Combustion of fuels","activityCategory":"Combustion","nace":"Production of electricity","year":2021,"verified":1737194,"rank":6},"geometry":{"type":"Point","coordinates":[-16.5768911,28.1222699]}},{"type":"Feature","properties":{"name":"INSTALACJE RAFINERYJNE","registry":"Poland","activity":"Refining of mineral oil","activityCategory":"Refineries","nace":"Manufacture of refined petroleum products","year":2021,"verified":1737097,"rank":23},"geometry":{"type":"Point","coordinates":[18.7333524,54.3411237]}},{"type":"Feature","properties":{"name":"Dampfheizkraftwerk VEO","registry":"Germany","activity":"Combustion of fuels","activityCategory":"Combustion","nace":"Steam and air conditioning supply","year":2021,"verified":1734143,"rank":34},"geometry":{"type":"Point","coordinates":[14.6288292,52.1611794]}},{"type":"Feature","properties":{"name":"Roheisen-und Stahlerzeugung","registry":"Germany","activity":"Production of pig iron or steel","activityCategory":"Metal","nace":"Manufacture of basic iron and steel and of ferro-alloys","year":2021,"verified":1701551,"rank":35},"geometry":{"type":"Point","coordinates":[14.6288292,52.1611794]}},{"type":"Feature","properties":{"name":"Elektrárny Opatovice - Elektrárna Opatovice","registry":"Czech Republic","activity":"Combustion of fuels","activityCategory":"Combustion","nace":"Production of electricity","year":2021,"verified":1691752,"rank":12},"geometry":{"type":"Point","coordinates":[15.7904532,50.1454119]}},{"type":"Feature","properties":{"name":"Werk Flandersbach-Anlage zum Brennen v. Kalkstein","registry":"Germany","activity":"Production of lime, or calcination of dolomite/magnesite","activityCategory":"Cement/Lime","nace":"Manufacture of lime and plaster","year":2021,"verified":1691601,"rank":36},"geometry":{"type":"Point","coordinates":[7.0222966,51.2804478]}},{"type":"Feature","properties":{"name":"Energie Productie Clauscentrale","registry":"Netherlands","activity":"Combustion of fuels","activityCategory":"Combustion","nace":"Electric power generation, transmission and distribution","year":2021,"verified":1676716,"rank":14},"geometry":{"type":"Point","coordinates":[5.9077771,51.1496155]}},{"type":"Feature","properties":{"name":"GuD-Anlage A 800","registry":"Germany","activity":"Combustion of fuels","activityCategory":"Combustion","nace":"Electric power generation, transmission and distribution","year":2021,"verified":1674130,"rank":37},"geometry":{"type":"Point","coordinates":[8.4272839,49.496315]}},{"type":"Feature","properties":{"name":"Centrale Termoelettrica di Livorno Ferraris","registry":"Italy","activity":"Combustion installations with a rated thermal input exceeding 20 MW","activityCategory":"Combustion","nace":"Production of electricity","year":2021,"verified":1649651,"rank":13},"geometry":{"type":"Point","coordinates":[8.0920724,45.281749]}},{"type":"Feature","properties":{"name":"Centrale di Tavazzano e Montanaso","registry":"Italy","activity":"Combustion installations with a rated thermal input exceeding 20 MW","activityCategory":"Combustion","nace":"Production of electricity","year":2021,"verified":1649336,"rank":14},"geometry":{"type":"Point","coordinates":[9.4413614,45.3296279]}},{"type":"Feature","properties":{"name":"SSAB Oxelösund","registry":"Sweden","activity":"Production of pig iron or steel","activityCategory":"Metal","nace":"Manufacture of basic iron and steel and of ferro-alloys","year":2021,"verified":1620919,"rank":2},"geometry":{"type":"Point","coordinates":[17.0749546,58.6754851]}},{"type":"Feature","properties":{"name":"NAPHTACHIMIE - Usine de Lavéra","registry":"France","activity":"Combustion of fuels","activityCategory":"Combustion","nace":"Manufacture of other organic basic chemicals","year":2021,"verified":1617296,"rank":7},"geometry":{"type":"Point","coordinates":[5.030569,43.388073]}},{"type":"Feature","properties":{"name":"Mineralölraffinerie Leuna","registry":"Germany","activity":"Refining of mineral oil","activityCategory":"Refineries","nace":"Manufacture of refined petroleum products","year":2021,"verified":1600337,"rank":38},"geometry":{"type":"Point","coordinates":[12.0224799,51.2880396]}},{"type":"Feature","properties":{"name":"RAFFINERIA DI SANNAZZARO","registry":"Italy","activity":"Refining of mineral oil","activityCategory":"Refineries","nace":"Manufacture of refined petroleum products","year":2021,"verified":1597264,"rank":15},"geometry":{"type":"Point","coordinates":[8.9006556,45.1039513]}},{"type":"Feature","properties":{"name":"Preemraff Lysekil","registry":"Sweden","activity":"Refining of mineral oil","activityCategory":"Refineries","nace":"Manufacture of refined petroleum products","year":2021,"verified":1594959,"rank":3},"geometry":{"type":"Point","coordinates":[11.435558,58.275573]}},{"type":"Feature","properties":{"name":"CEMENTOWNIA WARTA S.A.","registry":"Poland","activity":"Production of cement clinker","activityCategory":"Cement/Lime","nace":"Manufacture of cement","year":2021,"verified":1593938,"rank":24},"geometry":{"type":"Point","coordinates":[18.9357881,51.1028163]}},{"type":"Feature","properties":{"name":"Unión Eléct.Canarias Generac.-CT Barranco Tirajana","registry":"Spain","activity":"Combustion of fuels","activityCategory":"Combustion","nace":"Production of electricity","year":2021,"verified":1580228,"rank":7},"geometry":{"type":"Point","coordinates":[-15.4483623,27.8089386]}},{"type":"Feature","properties":{"name":"CENTRALE TERMOELETTRICA DI SULCIS","registry":"Italy","activity":"Combustion of fuels","activityCategory":"Combustion","nace":"Production of electricity","year":2021,"verified":1570620,"rank":16},"geometry":{"type":"Point","coordinates":[8.4047163,39.2063711]}},{"type":"Feature","properties":{"name":"HKW Reuter West","registry":"Germany","activity":"Combustion of fuels","activityCategory":"Combustion","nace":"Steam and air conditioning supply","year":2021,"verified":1564208,"rank":39},"geometry":{"type":"Point","coordinates":[13.2405928,52.5337203]}},{"type":"Feature","properties":{"name":"TAURON Wytwarzanie SA O. Elek. Łagisza w Będzinie","registry":"Poland","activity":"Combustion of fuels","activityCategory":"Combustion","nace":"Production of electricity","year":2021,"verified":1563538,"rank":25},"geometry":{"type":"Point","coordinates":[19.1407479,50.3499392]}},{"type":"Feature","properties":{"name":"ENERGOTRANS - Elektrárna Mělník 1","registry":"Czech Republic","activity":"Combustion of fuels","activityCategory":"Combustion","nace":"Steam and air conditioning supply","year":2021,"verified":1563087,"rank":13},"geometry":{"type":"Point","coordinates":[14.3899391,50.4244054]}},{"type":"Feature","properties":{"name":"Raffineria di Milazzo","registry":"Italy","activity":"Mineral oil refineries","activityCategory":"Refineries","nace":"Manufacture of refined petroleum products","year":2021,"verified":1539874,"rank":17},"geometry":{"type":"Point","coordinates":[15.2568422,38.2073846]}},{"type":"Feature","properties":{"name":"MOL Nyrt. Dunai Finomító","registry":"Hungary","activity":"Combustion of fuels","activityCategory":"Combustion","nace":"Manufacture of refined petroleum products","year":2021,"verified":1508932,"rank":2},"geometry":{"type":"Point","coordinates":[18.8889068,47.2976291]}},{"type":"Feature","properties":{"name":"ENERGETIKA TŘINEC - Teplárny a Tepelná zařízení","registry":"Czech Republic","activity":"Combustion of fuels","activityCategory":"Combustion","nace":"Production of electricity","year":2021,"verified":1507125,"rank":14},"geometry":{"type":"Point","coordinates":[18.6485017,49.6842696]}},{"type":"Feature","properties":{"name":"Heizkraftwerk West","registry":"Germany","activity":"Combustion of fuels","activityCategory":"Combustion","nace":"Production of electricity","year":2021,"verified":1503809,"rank":40},"geometry":{"type":"Point","coordinates":[10.7715825,52.4340092]}},{"type":"Feature","properties":{"name":"Naftos perdirbimo produktų gamykla","registry":"Lithuania","activity":"Refining of mineral oil","activityCategory":"Refineries","nace":"Manufacture of refined petroleum products","year":2021,"verified":1501524,"rank":2},"geometry":{"type":"Point","coordinates":[22.1988249,56.381082]}},{"type":"Feature","properties":{"name":"ΕΡΓΟΣΤΑΣΙΟ ΚΑΜΑΡΙΟΥ ΒΟΙΩΤΙΑΣ","registry":"Greece","activity":"Production of cement clinker","activityCategory":"Cement/Lime","nace":"Manufacture of cement","year":2021,"verified":1484863,"rank":4},"geometry":{"type":"Point","coordinates":[23.5014213,38.2216703]}},{"type":"Feature","properties":{"name":"Heizkraftwerk ThyssenKrupp Stahl AG Duisburg Hamb.","registry":"Germany","activity":"Combustion of fuels","activityCategory":"Combustion","nace":"Electric power generation, transmission and distribution","year":2021,"verified":1481644,"rank":41},"geometry":{"type":"Point","coordinates":[6.7408265,51.4913158]}},{"type":"Feature","properties":{"name":"LUKOIL Neftochim Bourgas AD","registry":"Bulgaria","activity":"Refining of mineral oil","activityCategory":"Refineries","nace":"Manufacture of refined petroleum products","year":2021,"verified":1475526,"rank":5},"geometry":{"type":"Point","coordinates":[27.4626361,42.5047926]}},{"type":"Feature","properties":{"name":"Compañía Española de Petróleos S.A. - La Rábida","registry":"Spain","activity":"Refining of mineral oil","activityCategory":"Refineries","nace":"Manufacture of refined petroleum products","year":2021,"verified":1473025,"rank":8},"geometry":{"type":"Point","coordinates":[-6.8954258,37.2288942]}},{"type":"Feature","properties":{"name":"Compañía Española de Petróleos S.A. - San Roque","registry":"Spain","activity":"Refining of mineral oil","activityCategory":"Refineries","nace":"Manufacture of refined petroleum products","year":2021,"verified":1472642,"rank":9},"geometry":{"type":"Point","coordinates":[-5.3915763,36.1888142]}},{"type":"Feature","properties":{"name":"Zeeland Refinery N.V.","registry":"Netherlands","activity":"Refining of mineral oil","activityCategory":"Refineries","nace":"Manufacture of refined petroleum products","year":2021,"verified":1469808,"rank":15},"geometry":{"type":"Point","coordinates":[3.727221,51.449565]}},{"type":"Feature","properties":{"name":"ΕΛΛΗΝΙΚΑ ΠΕΤΡΕΛΑΙΑ Α.Ε. ΔΙΥΛΙΣΤΗΡΙΟ ΑΣΠΡΟΠΥΡΓΟΥ","registry":"Greece","activity":"Refining of mineral oil","activityCategory":"Refineries","nace":"Manufacture of refined petroleum products","year":2021,"verified":1460612,"rank":5},"geometry":{"type":"Point","coordinates":[23.5842894,38.0431833]}},{"type":"Feature","properties":{"name":"Società EniPower - Stabilimento di Ferrara","registry":"Italy","activity":"Combustion of fuels","activityCategory":"Combustion","nace":"Production of electricity","year":2021,"verified":1449393,"rank":18},"geometry":{"type":"Point","coordinates":[11.5954038,44.8594441]}},{"type":"Feature","properties":{"name":"Raffinerie Godorf","registry":"Germany","activity":"Refining of mineral oil","activityCategory":"Refineries","nace":"Manufacture of refined petroleum products","year":2021,"verified":1446356,"rank":42},"geometry":{"type":"Point","coordinates":[6.9762816,50.8539688]}},{"type":"Feature","properties":{"name":"Heizkraftwerk GuD Süd (C200)","registry":"Germany","activity":"Combustion of fuels","activityCategory":"Combustion","nace":"Electric power generation, transmission and distribution","year":2021,"verified":1442015,"rank":43},"geometry":{"type":"Point","coordinates":[8.4272839,49.496315]}},{"type":"Feature","properties":{"name":"Central de Ciclo Combinado da Tapada do Outeiro","registry":"Portugal","activity":"Combustion of fuels","activityCategory":"Combustion","nace":"Production of electricity","year":2021,"verified":1441014,"rank":3},"geometry":{"type":"Point","coordinates":[-8.4595716,41.0669346]}},{"type":"Feature","properties":{"name":"Slitefabriken","registry":"Sweden","activity":"Production of cement clinker","activityCategory":"Cement/Lime","nace":"Manufacture of cement","year":2021,"verified":1440165,"rank":4},"geometry":{"type":"Point","coordinates":[18.8035155,57.7077202]}},{"type":"Feature","properties":{"name":"Heizkraftwerk Niehl","registry":"Germany","activity":"Combustion of fuels","activityCategory":"Combustion","nace":"Production of electricity","year":2021,"verified":1437843,"rank":44},"geometry":{"type":"Point","coordinates":[6.9899614,50.9743488]}},{"type":"Feature","properties":{"name":"Enecogen","registry":"Netherlands","activity":"Combustion of fuels","activityCategory":"Combustion","nace":"Electricity, gas, steam and air conditioning supply","year":2021,"verified":1429012,"rank":16},"geometry":{"type":"Point","coordinates":[4.0895229,51.9569193]}},{"type":"Feature","properties":{"name":"Kraftwerk I - Block 4 und Block 5","registry":"Germany","activity":"Combustion of fuels","activityCategory":"Combustion","nace":"Steam and air conditioning supply","year":2021,"verified":1417437,"rank":45},"geometry":{"type":"Point","coordinates":[7.0949199,51.6787945]}},{"type":"Feature","properties":{"name":"ΑΤΜΟΗΛΕΚΤΡΙΚΟΣ ΣΤΑΘΜΟΣ ΛΑΥΡΙΟΥ","registry":"Greece","activity":"Combustion of fuels","activityCategory":"Combustion","nace":"Production of electricity","year":2021,"verified":1396905,"rank":6},"geometry":{"type":"Point","coordinates":[24.0484129,37.7188511]}},{"type":"Feature","properties":{"name":"Kraftwerk Emsland (Lingen)","registry":"Germany","activity":"Combustion of fuels","activityCategory":"Combustion","nace":"Production of electricity","year":2021,"verified":1389004,"rank":46},"geometry":{"type":"Point","coordinates":[7.2996426,52.4825534]}},{"type":"Feature","properties":{"name":"Elektrociepłownia Z.A. Puławy","registry":"Poland","activity":"Combustion of fuels","activityCategory":"Combustion","nace":"Electric power generation, transmission and distribution","year":2021,"verified":1388139,"rank":26},"geometry":{"type":"Point","coordinates":[21.9808619,51.4518429]}},{"type":"Feature","properties":{"name":"Kraftwerk Zolling - Block 5 und Hilfskesselanlage","registry":"Germany","activity":"Combustion of fuels","activityCategory":"Combustion","nace":"Production of electricity","year":2021,"verified":1378945,"rank":47},"geometry":{"type":"Point","coordinates":[11.8001059,48.4561795]}},{"type":"Feature","properties":{"name":"GKH - Gemeinschaftskraftwerk Hannover GmbH","registry":"Germany","activity":"Combustion of fuels","activityCategory":"Combustion","nace":"Production of electricity","year":2021,"verified":1354944,"rank":48},"geometry":{"type":"Point","coordinates":[9.6491001,52.4206915]}},{"type":"Feature","properties":{"name":"ENGIE Eemscentrale","registry":"Netherlands","activity":"Combustion of fuels","activityCategory":"Combustion","nace":"Electricity, gas, steam and air conditioning supply","year":2021,"verified":1354285,"rank":17},"geometry":{"type":"Point","coordinates":[6.8796322,53.436836]}},{"type":"Feature","properties":{"name":"CENTRALE TERMOELETTRICA DI SAN FILIPPO DEL MELA","registry":"Italy","activity":"Combustion of fuels","activityCategory":"Combustion","nace":"Production of electricity","year":2021,"verified":1347418,"rank":19},"geometry":{"type":"Point","coordinates":[15.2851315,38.1919238]}},{"type":"Feature","properties":{"name":"Simeri Crichi","registry":"Italy","activity":"Combustion of fuels","activityCategory":"Combustion","nace":"Production of electricity","year":2021,"verified":1346222,"rank":20},"geometry":{"type":"Point","coordinates":[16.5876516,38.9097919]}},{"type":"Feature","properties":{"name":"ODDZIAŁ ELEKTROCIEPŁOWNIA GDAŃSKA","registry":"Poland","activity":"Combustion of fuels","activityCategory":"Combustion","nace":"Steam and air conditioning supply","year":2021,"verified":1335356,"rank":27},"geometry":{"type":"Point","coordinates":[18.6431568,54.3778939]}},{"type":"Feature","properties":{"name":"Vattenfall A/S Nordjyllandsværket","registry":"Denmark","activity":"Combustion of fuels","activityCategory":"Combustion","nace":"Production of electricity","year":2021,"verified":1314903,"rank":2},"geometry":{"type":"Point","coordinates":[10.0424874,57.0725431]}},{"type":"Feature","properties":{"name":"ΑΤΜΟΗΛΕΚΤΡΙΚΟΣ ΣΤΑΘΜΟΣ ΑΗΣ ΚΑΡΔΙΑΣ","registry":"Greece","activity":"Combustion of fuels","activityCategory":"Combustion","nace":"Production of electricity","year":2021,"verified":1313180,"rank":7},"geometry":{"type":"Point","coordinates":[21.8158699,40.4480165]}},{"type":"Feature","properties":{"name":"Elektrociepłownia II Karolin","registry":"Poland","activity":"Combustion of fuels","activityCategory":"Combustion","nace":"Production of electricity","year":2021,"verified":1313154,"rank":28},"geometry":{"type":"Point","coordinates":[16.9849715,52.4378744]}},{"type":"Feature","properties":{"name":"SC Azomurs SA","registry":"Romania","activity":"Combustion of fuels","activityCategory":"Combustion","nace":"Manufacture of fertilisers and nitrogen compounds","year":2021,"verified":1308070,"rank":5},"geometry":{"type":"Point","coordinates":[24.511066,46.5118492]}},{"type":"Feature","properties":{"name":"Ammoniakanlage 2","registry":"Germany","activity":"Production of ammonia","activityCategory":"Chemicals","nace":"Manufacture of fertilisers and nitrogen compounds","year":2021,"verified":1305788,"rank":49},"geometry":{"type":"Point","coordinates":[12.5883382,51.8740944]}},{"type":"Feature","properties":{"name":"ΑΤΜΟΗΛΕΚΤΡΙΚΟΣ ΣΤΑΘΜΟΣ ΜΕΓΑΛΟΠΟΛΗΣ - ΜΟΝΑΔΑ V","registry":"Greece","activity":"Combustion of fuels","activityCategory":"Combustion","nace":"Production of electricity","year":2021,"verified":1303707,"rank":8},"geometry":{"type":"Point","coordinates":[22.1364871,37.401244]}},{"type":"Feature","properties":{"name":"Vattenfall Magnum Centrale Eemsmond","registry":"Netherlands","activity":"Combustion of fuels","activityCategory":"Combustion","nace":"Production of electricity","year":2021,"verified":1285081,"rank":18},"geometry":{"type":"Point","coordinates":[6.8542156,53.4514511]}},{"type":"Feature","properties":{"name":"SPIEKALNIA ARCELORMITTAL DĄBROWA GÓRNICZA","registry":"Poland","activity":"Metal ore roasting or sintering","activityCategory":"Metal","nace":"Mining of iron ores","year":2021,"verified":1278558,"rank":29},"geometry":{"type":"Point","coordinates":[19.2690252,50.3455391]}},{"type":"Feature","properties":{"name":"ALUMINIUM OF GREECE","registry":"Greece","activity":"Combustion of fuels","activityCategory":"Combustion","nace":"Aluminium production","year":2021,"verified":1272331,"rank":9},"geometry":{"type":"Point","coordinates":[22.681062,38.3732116]}},{"type":"Feature","properties":{"name":"Sloe Centrale B.V.","registry":"Netherlands","activity":"Combustion of fuels","activityCategory":"Combustion","nace":"Electricity, gas, steam and air conditioning supply","year":2021,"verified":1271418,"rank":19},"geometry":{"type":"Point","coordinates":[3.6952143,51.4452028]}},{"type":"Feature","properties":{"name":"Centrale Termoelettrica di Moncalieri","registry":"Italy","activity":"Combustion of fuels","activityCategory":"Combustion","nace":"Production of electricity","year":2021,"verified":1269069,"rank":21},"geometry":{"type":"Point","coordinates":[7.6748044,44.9919886]}},{"type":"Feature","properties":{"name":"Vattenfall Centrale Diemen","registry":"Netherlands","activity":"Combustion of fuels","activityCategory":"Combustion","nace":"Production of electricity","year":2021,"verified":1265502,"rank":20},"geometry":{"type":"Point","coordinates":[5.0211088,52.3387978]}},{"type":"Feature","properties":{"name":"Zementwerk Rüdersdorf","registry":"Germany","activity":"Production of cement clinker","activityCategory":"Cement/Lime","nace":"Manufacture of cement","year":2021,"verified":1256723,"rank":50},"geometry":{"type":"Point","coordinates":[13.8096282,52.4889197]}},{"type":"Feature","properties":{"name":"Heizkraftwerk Herne","registry":"Germany","activity":"Combustion of fuels","activityCategory":"Combustion","nace":"Production of electricity","year":2021,"verified":1251104,"rank":51},"geometry":{"type":"Point","coordinates":[7.1809944,51.5477034]}},{"type":"Feature","properties":{"name":"Repsol Petróleo S.A. - Instalación de Puertollano","registry":"Spain","activity":"Refining of mineral oil","activityCategory":"Refineries","nace":"Manufacture of refined petroleum products","year":2021,"verified":1245672,"rank":10},"geometry":{"type":"Point","coordinates":[-4.087474,38.6835172]}},{"type":"Feature","properties":{"name":"TE Plomin 2","registry":"Croatia","activity":"Combustion of fuels","activityCategory":"Combustion","nace":"Production of electricity","year":2021,"verified":1221243,"rank":1},"geometry":{"type":"Point","coordinates":[14.1698663,45.1356611]}},{"type":"Feature","properties":{"name":"Raffinerie de Lavera","registry":"France","activity":"Refining of mineral oil","activityCategory":"Refineries","nace":"Manufacture of refined petroleum products","year":2021,"verified":1216173,"rank":8},"geometry":{"type":"Point","coordinates":[5.030569,43.388073]}},{"type":"Feature","properties":{"name":"Ammoniakanlage 1","registry":"Germany","activity":"Production of ammonia","activityCategory":"Chemicals","nace":"Manufacture of fertilisers and nitrogen compounds","year":2021,"verified":1215476,"rank":52},"geometry":{"type":"Point","coordinates":[12.5883382,51.8740944]}},{"type":"Feature","properties":{"name":"Pergen VOF","registry":"Netherlands","activity":"Combustion of fuels","activityCategory":"Combustion","nace":"Production of electricity","year":2021,"verified":1209448,"rank":21},"geometry":{"type":"Point","coordinates":[4.3466309,51.8760535]}},{"type":"Feature","properties":{"name":"ELEKTROCIEPŁOWNIA WROCŁAW","registry":"Poland","activity":"Combustion of fuels","activityCategory":"Combustion","nace":"Steam and air conditioning supply","year":2021,"verified":1201177,"rank":30},"geometry":{"type":"Point","coordinates":[17.0256632,51.1248883]}},{"type":"Feature","properties":{"name":"CEZ SKAWINA S.A.","registry":"Poland","activity":"Combustion of fuels","activityCategory":"Combustion","nace":"Production of electricity","year":2021,"verified":1197896,"rank":31},"geometry":{"type":"Point","coordinates":[19.8019098,49.9742916]}},{"type":"Feature","properties":{"name":"Vasiliko Cement Works Public Company Ltd - Vassilikos Cement Plant","registry":"Cyprus","activity":"Installations for the production of cement clinker in rotary kilns or lime in rotary kilns or in other furnaces","activityCategory":"Cement/Lime","nace":"Manufacture of cement","year":2021,"verified":1196620,"rank":2},"geometry":{"type":"Point","coordinates":[33.2989795,34.7414054]}},{"type":"Feature","properties":{"name":"Aughinish Alumina","registry":"Ireland","activity":"Combustion of fuels","activityCategory":"Combustion","nace":"Aluminium production","year":2021,"verified":1185891,"rank":2},"geometry":{"type":"Point","coordinates":[-8.9717512,52.6006587]}},{"type":"Feature","properties":{"name":"DONG Energy Generation, Esbjergværket","registry":"Denmark","activity":"Combustion of fuels","activityCategory":"Combustion","nace":"Production of electricity","year":2021,"verified":1185226,"rank":3},"geometry":{"type":"Point","coordinates":[8.4551076,55.4561578]}},{"type":"Feature","properties":{"name":"Kraftwerk Altbach","registry":"Germany","activity":"Combustion of fuels","activityCategory":"Combustion","nace":"Production of electricity","year":2021,"verified":1184730,"rank":53},"geometry":{"type":"Point","coordinates":[9.3764345,48.7206095]}},{"type":"Feature","properties":{"name":"SE, a.s., Elektrárne Nováky","registry":"Slovakia","activity":"Combustion of fuels","activityCategory":"Combustion","nace":"Production of electricity","year":2021,"verified":1165923,"rank":2},"geometry":{"type":"Point","coordinates":[18.5301263,48.6938049]}},{"type":"Feature","properties":{"name":"ČEZ, a. s. - Elektrárna Dětmarovice","registry":"Czech Republic","activity":"Combustion of fuels","activityCategory":"Combustion","nace":"Electric power generation, transmission and distribution","year":2021,"verified":1165576,"rank":15},"geometry":{"type":"Point","coordinates":[18.4647067,49.9053667]}},{"type":"Feature","properties":{"name":"Air Liquide Industrie B.V., vest. Botlek-Rotterdam","registry":"Netherlands","activity":"Refining of mineral oil","activityCategory":"Refineries","nace":"Manufacture of industrial gases","year":2021,"verified":1164455,"rank":22},"geometry":{"type":"Point","coordinates":[4.4099375,51.9435466]}},{"type":"Feature","properties":{"name":"Central de Ciclo Combinado do Pego","registry":"Portugal","activity":"Combustion of fuels","activityCategory":"Combustion","nace":"Production of electricity","year":2021,"verified":1163308,"rank":4},"geometry":{"type":"Point","coordinates":[-8.1496242,39.4617794]}},{"type":"Feature","properties":{"name":"EAC Dhekelia Power Station","registry":"Cyprus","activity":"Combustion installations with a rated thermal input exceeding 20 MW","activityCategory":"Combustion","nace":"Production of electricity","year":2021,"verified":1153120,"rank":3},"geometry":{"type":"Point","coordinates":[33.6200625,34.9182222]}},{"type":"Feature","properties":{"name":"Bp Oil España S.A.U","registry":"Spain","activity":"Refining of mineral oil","activityCategory":"Refineries","nace":"Manufacture of refined petroleum products","year":2021,"verified":1152334,"rank":11},"geometry":{"type":"Point","coordinates":[-0.1120696,40.5940024]}},{"type":"Feature","properties":{"name":"Gichtgaskraftwerk Dillingen/Saar","registry":"Germany","activity":"Combustion of fuels","activityCategory":"Combustion","nace":"Electric power generation, transmission and distribution","year":2021,"verified":1151493,"rank":54},"geometry":{"type":"Point","coordinates":[6.7317259,49.3553758]}},{"type":"Feature","properties":{"name":"Wien Energie - KW Simmering 1+2","registry":"Austria","activity":"Combustion of fuels","activityCategory":"Combustion","nace":"Production of electricity","year":2021,"verified":1148493,"rank":4},"geometry":{"type":"Point","coordinates":[16.4291853,48.1824612]}},{"type":"Feature","properties":{"name":"TORVISCOSA","registry":"Italy","activity":"Combustion of fuels","activityCategory":"Combustion","nace":"Production of electricity","year":2021,"verified":1142591,"rank":22},"geometry":{"type":"Point","coordinates":[13.2750484,45.8232717]}},{"type":"Feature","properties":{"name":"Ethylenanlage (Cracker) Boehlen","registry":"Germany","activity":"Production of bulk chemicals","activityCategory":"Chemicals","nace":"Manufacture of other organic basic chemicals","year":2021,"verified":1136385,"rank":55},"geometry":{"type":"Point","coordinates":[12.3870379,51.2006946]}},{"type":"Feature","properties":{"name":"CCC - Cartagena","registry":"Spain","activity":"Combustion of fuels","activityCategory":"Combustion","nace":"Production of electricity","year":2021,"verified":1126696,"rank":12},"geometry":{"type":"Point","coordinates":[-0.9166755,37.5777608]}},{"type":"Feature","properties":{"name":"Heizkraftwerk Tiefstack","registry":"Germany","activity":"Combustion of fuels","activityCategory":"Combustion","nace":"Steam and air conditioning supply","year":2021,"verified":1122807,"rank":56},"geometry":{"type":"Point","coordinates":[10.0674369,53.5261971]}},{"type":"Feature","properties":{"name":"CCB Cimenterie Gaurain","registry":"Belgium","activity":"Production of cement clinker","activityCategory":"Cement/Lime","nace":"Manufacture of cement","year":2021,"verified":1121723,"rank":4},"geometry":{"type":"Point","coordinates":[3.4861512,50.5959744]}},{"type":"Feature","properties":{"name":"S Complexul Energetic Oltenia SA -  SE Isalnita","registry":"Romania","activity":"Combustion of fuels","activityCategory":"Combustion","nace":"Production of electricity","year":2021,"verified":1116183,"rank":6},"geometry":{"type":"Point","coordinates":[23.7247375,44.3939534]}},{"type":"Feature","properties":{"name":"Ammoniakanlage","registry":"Germany","activity":"Production of hydrogen and synthesis gas","activityCategory":"Hydrogen Production","nace":"Manufacture of refined petroleum products","year":2021,"verified":1115915,"rank":57},"geometry":{"type":"Point","coordinates":[9.2100026,53.9108748]}},{"type":"Feature","properties":{"name":"Raffineria Isab Impianti Sud","registry":"Italy","activity":"Refining of mineral oil","activityCategory":"Refineries","nace":"Manufacture of refined petroleum products","year":2021,"verified":1115161,"rank":23},"geometry":{"type":"Point","coordinates":[15.1913663,37.1551993]}},{"type":"Feature","properties":{"name":"Totalenergies Clientes, S.A.U. - Castejón -1","registry":"Spain","activity":"Combustion of fuels","activityCategory":"Combustion","nace":"Production of electricity","year":2021,"verified":1115046,"rank":13},"geometry":{"type":"Point","coordinates":[-1.6870303,42.1717973]}},{"type":"Feature","properties":{"name":"Mineralölverarbeitung Burghausen","registry":"Germany","activity":"Refining of mineral oil","activityCategory":"Refineries","nace":"Manufacture of refined petroleum products","year":2021,"verified":1108174,"rank":58},"geometry":{"type":"Point","coordinates":[12.8359922,48.1945703]}},{"type":"Feature","properties":{"name":"CEZ Chorzów S.A.","registry":"Poland","activity":"Combustion of fuels","activityCategory":"Combustion","nace":"Production of electricity","year":2021,"verified":1099915,"rank":32},"geometry":{"type":"Point","coordinates":[18.9710955,50.308267]}},{"type":"Feature","properties":{"name":"SC Holcim (Romania) SA - Ciment Alesd","registry":"Romania","activity":"Production of cement clinker","activityCategory":"Cement/Lime","nace":"Manufacture of cement","year":2021,"verified":1096758,"rank":7},"geometry":{"type":"Point","coordinates":[22.3541687,47.0411877]}},{"type":"Feature","properties":{"name":"Solvay I","registry":"Spain","activity":"Production of soda ash and sodium bicarbonate","activityCategory":"Chemicals","nace":"Manufacture of other inorganic basic chemicals","year":2021,"verified":1091451,"rank":14},"geometry":{"type":"Point","coordinates":[-4.0501505,43.3488503]}},{"type":"Feature","properties":{"name":"Equinor ASA Osebergfeltet","registry":"Norway","activity":"Combustion of fuels","activityCategory":"Combustion","nace":"Extraction of crude petroleum","year":2021,"verified":1091030,"rank":2},"geometry":{"type":"Point","coordinates":[5.7185511,58.8927905]}},{"type":"Feature","properties":{"name":"Heizkraftwerk Lausward","registry":"Germany","activity":"Combustion of fuels","activityCategory":"Combustion","nace":"Steam and air conditioning supply","year":2021,"verified":1089909,"rank":59},"geometry":{"type":"Point","coordinates":[6.735621,51.2231865]}},{"type":"Feature","properties":{"name":"Impianto di produzione ammoniaca e urea","registry":"Italy","activity":"Combustion of fuels","activityCategory":"Combustion","nace":"Manufacture of fertilisers and nitrogen compounds","year":2021,"verified":1088956,"rank":24},"geometry":{"type":"Point","coordinates":[11.5954038,44.8594441]}},{"type":"Feature","properties":{"name":"Heizkraftwerk Chemnitz Nord II","registry":"Germany","activity":"Combustion of fuels","activityCategory":"Combustion","nace":"Production of electricity","year":2021,"verified":1082134,"rank":60},"geometry":{"type":"Point","coordinates":[12.9231515,50.857025]}},{"type":"Feature","properties":{"name":"ΕΡΓΟΣΤΑΣΙΟ ΒΟΛΟΥ","registry":"Greece","activity":"Production of cement clinker","activityCategory":"Cement/Lime","nace":"Manufacture of cement","year":2021,"verified":1080587,"rank":10},"geometry":{"type":"Point","coordinates":[22.9506769,39.366584]}},{"type":"Feature","properties":{"name":"Drehöfen  Deuna","registry":"Germany","activity":"Production of cement clinker","activityCategory":"Cement/Lime","nace":"Manufacture of cement","year":2021,"verified":1071214,"rank":61},"geometry":{"type":"Point","coordinates":[10.48521,51.3612084]}},{"type":"Feature","properties":{"name":"TVK","registry":"Hungary","activity":"Production of bulk chemicals","activityCategory":"Chemicals","nace":"Manufacture of other organic basic chemicals","year":2021,"verified":1068877,"rank":3},"geometry":{"type":"Point","coordinates":[19.040578,47.338278]}},{"type":"Feature","properties":{"name":"Raffinerie als Glocke","registry":"Germany","activity":"Refining of mineral oil","activityCategory":"Refineries","nace":"Manufacture of refined petroleum products","year":2021,"verified":1067158,"rank":62},"geometry":{"type":"Point","coordinates":[7.2987305,52.5587974]}},{"type":"Feature","properties":{"name":"Duslo, a.s. Šaľa","registry":"Slovakia","activity":"Production of ammonia","activityCategory":"Chemicals","nace":"Manufacture of fertilisers and nitrogen compounds","year":2021,"verified":1067003,"rank":3},"geometry":{"type":"Point","coordinates":[17.8757694,48.1513494]}},{"type":"Feature","properties":{"name":"Irish Cement Limited (Platin Works)","registry":"Ireland","activity":"Production of cement clinker","activityCategory":"Cement/Lime","nace":"Manufacture of cement","year":2021,"verified":1065759,"rank":3},"geometry":{"type":"Point","coordinates":[-6.3878095,53.6840502]}},{"type":"Feature","properties":{"name":"Kraftwerk Dormagen","registry":"Germany","activity":"Combustion of fuels","activityCategory":"Combustion","nace":"Production of electricity","year":2021,"verified":1063848,"rank":63},"geometry":{"type":"Point","coordinates":[6.8118573,51.0907133]}},{"type":"Feature","properties":{"name":"Zentralkokerei Dillingen","registry":"Germany","activity":"Production of coke","activityCategory":"Coke ovens","nace":"Manufacture of coke oven products","year":2021,"verified":1060361,"rank":64},"geometry":{"type":"Point","coordinates":[6.7317259,49.3553758]}},{"type":"Feature","properties":{"name":"CENTRALE TERMOELETTRICA DI CHIVASSO","registry":"Italy","activity":"Combustion of fuels","activityCategory":"Combustion","nace":"Production of electricity","year":2021,"verified":1059582,"rank":25},"geometry":{"type":"Point","coordinates":[7.9006616,45.1872139]}},{"type":"Feature","properties":{"name":"Raffinerie de Feyzin (FZN)","registry":"France","activity":"Refining of mineral oil","activityCategory":"Refineries","nace":"Manufacture of refined petroleum products","year":2021,"verified":1057122,"rank":9},"geometry":{"type":"Point","coordinates":[4.8602463,45.6730259]}},{"type":"Feature","properties":{"name":"Rafinéria","registry":"Slovakia","activity":"Refining of mineral oil","activityCategory":"Refineries","nace":"Manufacture of refined petroleum products","year":2021,"verified":1054576,"rank":4},"geometry":{"type":"Point","coordinates":[17.1766007,48.1281993]}},{"type":"Feature","properties":{"name":"Werk Lägerdorf","registry":"Germany","activity":"Production of cement clinker","activityCategory":"Cement/Lime","nace":"Manufacture of cement","year":2021,"verified":1052647,"rank":65},"geometry":{"type":"Point","coordinates":[9.5799219,53.8770226]}},{"type":"Feature","properties":{"name":"PETROBRAZI","registry":"Romania","activity":"Combustion of fuels","activityCategory":"Combustion","nace":"Electric power generation, transmission and distribution","year":2021,"verified":1052362,"rank":8},"geometry":{"type":"Point","coordinates":[26.016432,44.8828495]}},{"type":"Feature","properties":{"name":"CEMENTOWNIA CHEŁM CEMEX","registry":"Poland","activity":"Production of cement clinker","activityCategory":"Cement/Lime","nace":"Manufacture of cement","year":2021,"verified":1046438,"rank":33},"geometry":{"type":"Point","coordinates":[23.5394646,51.1369381]}},{"type":"Feature","properties":{"name":"EDF Cycle Combiné Gaz de Bouchain","registry":"France","activity":"Combustion of fuels","activityCategory":"Combustion","nace":"Electric power generation, transmission and distribution","year":2021,"verified":1046180,"rank":10},"geometry":{"type":"Point","coordinates":[3.3110008,50.2701791]}},{"type":"Feature","properties":{"name":"Usine de Gonfreville (UGO)","registry":"France","activity":"Combustion of fuels","activityCategory":"Combustion","nace":"Manufacture of other organic basic chemicals","year":2021,"verified":1044721,"rank":11},"geometry":{"type":"Point","coordinates":[0.2109729,49.4797584]}},{"type":"Feature","properties":{"name":"SC Holcim (Romania) SA - Ciment Campulung","registry":"Romania","activity":"Production of cement clinker","activityCategory":"Cement/Lime","nace":"Manufacture of cement","year":2021,"verified":1042156,"rank":9},"geometry":{"type":"Point","coordinates":[25.0940484,45.2934847]}},{"type":"Feature","properties":{"name":"Heizkraftwerk Wedel","registry":"Germany","activity":"Combustion of fuels","activityCategory":"Combustion","nace":"Steam and air conditioning supply","year":2021,"verified":1038938,"rank":66},"geometry":{"type":"Point","coordinates":[9.7245776,53.5692572]}},{"type":"Feature","properties":{"name":"CENTRALE TERMOELETTRICA DI TERMINI IMERESE","registry":"Italy","activity":"Combustion of fuels","activityCategory":"Combustion","nace":"Production of electricity","year":2021,"verified":1023532,"rank":26},"geometry":{"type":"Point","coordinates":[13.7452086,37.9694719]}},{"type":"Feature","properties":{"name":"LAFARGE CEMENT S.A. Oddział w Bielawach","registry":"Poland","activity":"Production of cement clinker","activityCategory":"Cement/Lime","nace":"Manufacture of cement","year":2021,"verified":1022925,"rank":34},"geometry":{"type":"Point","coordinates":[18.038611,52.820556]}},{"type":"Feature","properties":{"name":"Elektrownia gazowo-parowa CCGT","registry":"Poland","activity":"Combustion of fuels","activityCategory":"Combustion","nace":"Electric power generation, transmission and distribution","year":2021,"verified":1022344,"rank":35},"geometry":{"type":"Point","coordinates":[18.9660501,52.7334042]}},{"type":"Feature","properties":{"name":"RUHR OEL GmbH - Werk Horst - CO2-Glocke","registry":"Germany","activity":"Refining of mineral oil","activityCategory":"Refineries","nace":"Manufacture of refined petroleum products","year":2021,"verified":1016652,"rank":67},"geometry":{"type":"Point","coordinates":[7.0337238,51.5968243]}},{"type":"Feature","properties":{"name":"CBR Cimenterie Lixhe","registry":"Belgium","activity":"Production of cement clinker","activityCategory":"Cement/Lime","nace":"Manufacture of cement","year":2021,"verified":1013990,"rank":5},"geometry":{"type":"Point","coordinates":[5.6701958,50.7590734]}},{"type":"Feature","properties":{"name":"Kraftwerk Staudinger","registry":"Germany","activity":"Combustion of fuels","activityCategory":"Combustion","nace":"Production of electricity","year":2021,"verified":1012282,"rank":68},"geometry":{"type":"Point","coordinates":[8.9564233,50.0877398]}},{"type":"Feature","properties":{"name":"Zementwerk Burglengenfeld","registry":"Germany","activity":"Production of cement clinker","activityCategory":"Cement/Lime","nace":"Manufacture of cement","year":2021,"verified":1010091,"rank":69},"geometry":{"type":"Point","coordinates":[12.0296401,49.2116849]}},{"type":"Feature","properties":{"name":"CENTRALE TERMOELETTRICA DI  FUSINA","registry":"Italy","activity":"Combustion of fuels","activityCategory":"Combustion","nace":"Production of electricity","year":2021,"verified":1007682,"rank":27},"geometry":{"type":"Point","coordinates":[12.2464517,45.4327856]}},{"type":"Feature","properties":{"name":"KGHM Polska Miedź S.A. Oddział Huta Miedzi Głogów","registry":"Poland","activity":"Production or processing of non-ferrous metals","activityCategory":"Metal","nace":"Copper production","year":2021,"verified":1006823,"rank":36},"geometry":{"type":"Point","coordinates":[15.9954846,51.6783893]}},{"type":"Feature","properties":{"name":"Katilinė, cemento klinkerio gamybos krosnys","registry":"Lithuania","activity":"Production of cement clinker","activityCategory":"Cement/Lime","nace":"Manufacture of cement","year":2021,"verified":997056,"rank":3},"geometry":{"type":"Point","coordinates":[22.8984497,56.3079315]}},{"type":"Feature","properties":{"name":"Great Island Generating Station","registry":"Ireland","activity":"Combustion of fuels","activityCategory":"Combustion","nace":"Production of electricity","year":2021,"verified":993092,"rank":4},"geometry":{"type":"Point","coordinates":[-6.94719,52.3962044]}},{"type":"Feature","properties":{"name":"TAURON Wytw. SA O. Elektrownia Siersza w Trzebini","registry":"Poland","activity":"Combustion of fuels","activityCategory":"Combustion","nace":"Production of electricity","year":2021,"verified":992819,"rank":37},"geometry":{"type":"Point","coordinates":[19.4179283,50.1931448]}},{"type":"Feature","properties":{"name":"Calenia Energia","registry":"Italy","activity":"Combustion of fuels","activityCategory":"Combustion","nace":"Production of electricity","year":2021,"verified":984829,"rank":28},"geometry":{"type":"Point","coordinates":[14.0983279,41.1768566]}},{"type":"Feature","properties":{"name":"Heizkraftwerk Nord 2","registry":"Germany","activity":"Combustion of fuels","activityCategory":"Combustion","nace":"Production of electricity","year":2021,"verified":971094,"rank":70},"geometry":{"type":"Point","coordinates":[11.6403235,48.1803797]}},{"type":"Feature","properties":{"name":"ČEZ, a. s., Elektrárna Počerady 2","registry":"Czech Republic","activity":"Combustion of fuels","activityCategory":"Combustion","nace":"Electric power generation, transmission and distribution","year":2021,"verified":969700,"rank":16},"geometry":{"type":"Point","coordinates":[13.6874593,50.4180537]}},{"type":"Feature","properties":{"name":"Holcim Cimenterie Obourg","registry":"Belgium","activity":"Production of cement clinker","activityCategory":"Cement/Lime","nace":"Manufacture of cement","year":2021,"verified":969612,"rank":6},"geometry":{"type":"Point","coordinates":[3.9972572,50.4719597]}},{"type":"Feature","properties":{"name":"Usine chimique de l'Aubette","registry":"France","activity":"Combustion of fuels","activityCategory":"Combustion","nace":"Manufacture of other organic basic chemicals","year":2021,"verified":967825,"rank":12},"geometry":{"type":"Point","coordinates":[5.1948965,43.5245076]}},{"type":"Feature","properties":{"name":"Zementwerk Karsdorf","registry":"Germany","activity":"Production of cement clinker","activityCategory":"Cement/Lime","nace":"Manufacture of cement","year":2021,"verified":964238,"rank":71},"geometry":{"type":"Point","coordinates":[11.658,51.27187]}},{"type":"Feature","properties":{"name":"Danucem Slovensko a.s., cementáreň Rohožník","registry":"Slovakia","activity":"Production of cement clinker","activityCategory":"Cement/Lime","nace":"Manufacture of cement","year":2021,"verified":957552,"rank":5},"geometry":{"type":"Point","coordinates":[17.1670972,48.4619372]}},{"type":"Feature","properties":{"name":"Rizziconi Energia","registry":"Italy","activity":"Combustion of fuels","activityCategory":"Combustion","nace":"Production of electricity","year":2021,"verified":951542,"rank":29},"geometry":{"type":"Point","coordinates":[15.9883382,38.4426907]}},{"type":"Feature","properties":{"name":"ENGIE Maximacentrale","registry":"Netherlands","activity":"Combustion of fuels","activityCategory":"Combustion","nace":"Electricity, gas, steam and air conditioning supply","year":2021,"verified":949882,"rank":23},"geometry":{"type":"Point","coordinates":[5.5293933,52.5757241]}},{"type":"Feature","properties":{"name":"Elektrociepłownia Zakład EC-3 Veolia Energia Łódź","registry":"Poland","activity":"Combustion of fuels","activityCategory":"Combustion","nace":"Production of electricity","year":2021,"verified":946355,"rank":38},"geometry":{"type":"Point","coordinates":[19.4217661,51.7982393]}},{"type":"Feature","properties":{"name":"CENTRALE TERMOELETTRICA DI  PORTO CORSINI","registry":"Italy","activity":"Combustion of fuels","activityCategory":"Combustion","nace":"Production of electricity","year":2021,"verified":944328,"rank":30},"geometry":{"type":"Point","coordinates":[12.2635624,44.4836897]}},{"type":"Feature","properties":{"name":"Raffinerie Heide GmbH","registry":"Germany","activity":"Refining of mineral oil","activityCategory":"Refineries","nace":"Manufacture of refined petroleum products","year":2021,"verified":943963,"rank":72},"geometry":{"type":"Point","coordinates":[9.0780935,54.1558644]}},{"type":"Feature","properties":{"name":"Dyckerhoff Polska Sp. z o.o.","registry":"Poland","activity":"Production of cement clinker","activityCategory":"Cement/Lime","nace":"Manufacture of cement","year":2021,"verified":943385,"rank":39},"geometry":{"type":"Point","coordinates":[20.5362639,50.8147247]}},{"type":"Feature","properties":{"name":"Cementeria di Robilante","registry":"Italy","activity":"Production of cement clinker","activityCategory":"Cement/Lime","nace":"Manufacture of cement","year":2021,"verified":933726,"rank":31},"geometry":{"type":"Point","coordinates":[7.5044203,44.3049882]}},{"type":"Feature","properties":{"name":"ConocoPhillips Skandinavia AS Ekofiskområdet","registry":"Norway","activity":"Combustion of fuels","activityCategory":"Combustion","nace":"Extraction of crude petroleum","year":2021,"verified":926119,"rank":3},"geometry":{"type":"Point","coordinates":[5.5740963,58.9361824]}},{"type":"Feature","properties":{"name":"ERG Power","registry":"Italy","activity":"Combustion of fuels","activityCategory":"Combustion","nace":"Production of electricity","year":2021,"verified":921245,"rank":32},"geometry":{"type":"Point","coordinates":[15.1925059,37.1509259]}},{"type":"Feature","properties":{"name":"Gas y Electricidad Generación SAU-CT Cas Tresorer","registry":"Spain","activity":"Combustion of fuels","activityCategory":"Combustion","nace":"Production of electricity","year":2021,"verified":920742,"rank":15},"geometry":{"type":"Point","coordinates":[2.692746,39.5620229]}},{"type":"Feature","properties":{"name":"S Complexul Energetic Oltenia S.A. -SE Craiova II","registry":"Romania","activity":"Combustion of fuels","activityCategory":"Combustion","nace":"Steam and air conditioning supply","year":2021,"verified":919154,"rank":10},"geometry":{"type":"Point","coordinates":[23.818134,44.343866]}},{"type":"Feature","properties":{"name":"Italcementi-Cementeria di Rezzato","registry":"Italy","activity":"Production of cement clinker","activityCategory":"Cement/Lime","nace":"Manufacture of cement","year":2021,"verified":918742,"rank":33},"geometry":{"type":"Point","coordinates":[10.3440164,45.5149142]}},{"type":"Feature","properties":{"name":"Ethylenanlage OM6","registry":"Germany","activity":"Production of bulk chemicals","activityCategory":"Chemicals","nace":"Manufacture of other organic basic chemicals","year":2021,"verified":917875,"rank":73},"geometry":{"type":"Point","coordinates":[6.9669816,50.8330656]}},{"type":"Feature","properties":{"name":"Lafarge Holcim Ciments- Usine de St Pierre La Cour","registry":"France","activity":"Production of cement clinker","activityCategory":"Cement/Lime","nace":"Manufacture of cement","year":2021,"verified":909642,"rank":13},"geometry":{"type":"Point","coordinates":[-1.0361049,48.1074919]}},{"type":"Feature","properties":{"name":"Centrale termoelettrica Torino Nord","registry":"Italy","activity":"Combustion of fuels","activityCategory":"Combustion","nace":"Electricity, gas, steam and air conditioning supply","year":2021,"verified":904849,"rank":34},"geometry":{"type":"Point","coordinates":[7.614649,45.1036679]}},{"type":"Feature","properties":{"name":"Nitrogénművek Zrt.","registry":"Hungary","activity":"Production of ammonia","activityCategory":"Chemicals","nace":"Manufacture of fertilisers and nitrogen compounds","year":2021,"verified":903128,"rank":4},"geometry":{"type":"Point","coordinates":[18.1304789,47.1646307]}},{"type":"Feature","properties":{"name":"Elektrociepłownia Zakład EC-4 Veolia Energia Łódź","registry":"Poland","activity":"Combustion of fuels","activityCategory":"Combustion","nace":"Production of electricity","year":2021,"verified":901382,"rank":40},"geometry":{"type":"Point","coordinates":[19.5422604,51.7480589]}},{"type":"Feature","properties":{"name":"TURBIGO","registry":"Italy","activity":"Combustion of fuels","activityCategory":"Combustion","nace":"Production of electricity","year":2021,"verified":899630,"rank":35},"geometry":{"type":"Point","coordinates":[8.7348869,45.5240779]}},{"type":"Feature","properties":{"name":"LAFARGE CEMENT S.A. CEMENTOWNIA MAŁOGOSZCZ","registry":"Poland","activity":"Production of cement clinker","activityCategory":"Cement/Lime","nace":"Manufacture of cement","year":2021,"verified":895521,"rank":41},"geometry":{"type":"Point","coordinates":[20.281637,50.8246936]}},{"type":"Feature","properties":{"name":"Ammoniak-Fabrik 4","registry":"Germany","activity":"Production of ammonia","activityCategory":"Chemicals","nace":"Manufacture of fertilisers and nitrogen compounds","year":2021,"verified":894856,"rank":74},"geometry":{"type":"Point","coordinates":[8.430558,49.4961841]}},{"type":"Feature","properties":{"name":"EDF Centrale de Martigues","registry":"France","activity":"Combustion of fuels","activityCategory":"Combustion","nace":"Production of electricity","year":2021,"verified":894344,"rank":14},"geometry":{"type":"Point","coordinates":[5.0281758,43.3529663]}},{"type":"Feature","properties":{"name":"Cimpor - Centro de Produção de Alhandra","registry":"Portugal","activity":"Production of cement clinker","activityCategory":"Cement/Lime","nace":"Manufacture of cement","year":2021,"verified":891465,"rank":5},"geometry":{"type":"Point","coordinates":[-9.0117904,38.9296355]}},{"type":"Feature","properties":{"name":"ROMCIM SA-Punct de lucru Medgidia","registry":"Romania","activity":"Production of cement clinker","activityCategory":"Cement/Lime","nace":"Manufacture of cement","year":2021,"verified":888902,"rank":11},"geometry":{"type":"Point","coordinates":[28.2596515,44.2488927]}},{"type":"Feature","properties":{"name":"ΑΤΜΟΗΛΕΚΤΡΙΚΟΣ ΣΤΑΘΜΟΣ ΑΛΙΒΕΡΙΟΥ","registry":"Greece","activity":"Combustion of fuels","activityCategory":"Combustion","nace":"Production of electricity","year":2021,"verified":888892,"rank":11},"geometry":{"type":"Point","coordinates":[24.0440187,38.4061122]}},{"type":"Feature","properties":{"name":"CENTRALE DI GISSI","registry":"Italy","activity":"Combustion of fuels","activityCategory":"Combustion","nace":"Production of electricity","year":2021,"verified":886581,"rank":36},"geometry":{"type":"Point","coordinates":[14.5611804,42.049696]}},{"type":"Feature","properties":{"name":"Salmisaaren voimalaitos","registry":"Finland","activity":"Combustion of fuels","activityCategory":"Combustion","nace":"Steam and air conditioning supply","year":2021,"verified":886506,"rank":3},"geometry":{"type":"Point","coordinates":[24.9051743,60.16419]}},{"type":"Feature","properties":{"name":"Auvere Elektrijaam","registry":"Estonia","activity":"Combustion of fuels","activityCategory":"Combustion","nace":"Production of electricity","year":2021,"verified":885666,"rank":2},"geometry":{"type":"Point","coordinates":[27.9158381,59.3186346]}},{"type":"Feature","properties":{"name":"Kraftwerk Farge","registry":"Germany","activity":"Combustion of fuels","activityCategory":"Combustion","nace":"Production of electricity","year":2021,"verified":879703,"rank":75},"geometry":{"type":"Point","coordinates":[8.517071,53.2018162]}},{"type":"Feature","properties":{"name":"EMCF - Notre Dame de Gravenchon","registry":"France","activity":"Combustion of fuels","activityCategory":"Combustion","nace":"Manufacture of other organic basic chemicals","year":2021,"verified":878486,"rank":15},"geometry":{"type":"Point","coordinates":[0.55243,49.48118]}},{"type":"Feature","properties":{"name":"Repsol Química, S.A. - El Morell - Cogeneración","registry":"Spain","activity":"Production of bulk chemicals","activityCategory":"Chemicals","nace":"Manufacture of other organic basic chemicals","year":2021,"verified":876889,"rank":16},"geometry":{"type":"Point","coordinates":[1.2196065,41.1990974]}},{"type":"Feature","properties":{"name":"Borealis Agrolinz Melamine Ammoniakanlage","registry":"Austria","activity":"Production of ammonia","activityCategory":"Chemicals","nace":"Manufacture of fertilisers and nitrogen compounds","year":2021,"verified":876301,"rank":5},"geometry":{"type":"Point","coordinates":[14.323669,48.287186]}},{"type":"Feature","properties":{"name":"Kraftwerk Mehrum Block 3","registry":"Germany","activity":"Combustion of fuels","activityCategory":"Combustion","nace":"Production of electricity","year":2021,"verified":875157,"rank":76},"geometry":{"type":"Point","coordinates":[10.0948986,52.3169235]}},{"type":"Feature","properties":{"name":"Fábrica SECIL - Outão","registry":"Portugal","activity":"Production of cement clinker","activityCategory":"Cement/Lime","nace":"Manufacture of cement","year":2021,"verified":869636,"rank":6},"geometry":{"type":"Point","coordinates":[-8.9339207,38.4895156]}},{"type":"Feature","properties":{"name":"ISD POWER Kft. Erőmű","registry":"Hungary","activity":"Combustion of fuels","activityCategory":"Combustion","nace":"Production of electricity","year":2021,"verified":866342,"rank":5},"geometry":{"type":"Point","coordinates":[18.9466703,46.9501484]}},{"type":"Feature","properties":{"name":"ROMCIM SA-Punct de lucru Hoghiz","registry":"Romania","activity":"Production of cement clinker","activityCategory":"Cement/Lime","nace":"Manufacture of cement","year":2021,"verified":861851,"rank":12},"geometry":{"type":"Point","coordinates":[25.3080583,45.984608]}},{"type":"Feature","properties":{"name":"Standort Neustadt","registry":"Germany","activity":"Refining of mineral oil","activityCategory":"Refineries","nace":"Manufacture of refined petroleum products","year":2021,"verified":859063,"rank":77},"geometry":{"type":"Point","coordinates":[11.7506292,48.7900242]}},{"type":"Feature","properties":{"name":"Centrale Termoelettrica Roselectra","registry":"Italy","activity":"Combustion of fuels","activityCategory":"Combustion","nace":"Production of electricity","year":2021,"verified":856830,"rank":37},"geometry":{"type":"Point","coordinates":[10.4433,43.3860989]}},{"type":"Feature","properties":{"name":"Centrale Termoelettrica Leinì","registry":"Italy","activity":"Combustion of fuels","activityCategory":"Combustion","nace":"Production of electricity","year":2021,"verified":856512,"rank":38},"geometry":{"type":"Point","coordinates":[7.752661,45.1581833]}},{"type":"Feature","properties":{"name":"Kraftwerk Irsching","registry":"Germany","activity":"Combustion of fuels","activityCategory":"Combustion","nace":"Production of electricity","year":2021,"verified":854657,"rank":78},"geometry":{"type":"Point","coordinates":[11.5825409,48.7679508]}},{"type":"Feature","properties":{"name":"Industriekraftwerk Frechen","registry":"Germany","activity":"Combustion of fuels","activityCategory":"Combustion","nace":"Electric power generation, transmission and distribution","year":2021,"verified":851553,"rank":79},"geometry":{"type":"Point","coordinates":[6.7975926,50.8989744]}},{"type":"Feature","properties":{"name":"S.A.R.P.O.M S.R.L.","registry":"Italy","activity":"Refining of mineral oil","activityCategory":"Refineries","nace":"Manufacture of refined petroleum products","year":2021,"verified":850236,"rank":39},"geometry":{"type":"Point","coordinates":[8.7877036,45.440149]}},{"type":"Feature","properties":{"name":"Kraftwerk Bergkamen","registry":"Germany","activity":"Combustion of fuels","activityCategory":"Combustion","nace":"Production of electricity","year":2021,"verified":849908,"rank":80},"geometry":{"type":"Point","coordinates":[7.6164638,51.6388949]}},{"type":"Feature","properties":{"name":"C.T. de Ciclo Combinado Bahía de Algeciras","registry":"Spain","activity":"Combustion of fuels","activityCategory":"Combustion","nace":"Production of electricity","year":2021,"verified":849362,"rank":17},"geometry":{"type":"Point","coordinates":[-5.3857755,36.1811812]}},{"type":"Feature","properties":{"name":"Scotchtown Cement Works","registry":"Ireland","activity":"Production of cement clinker","activityCategory":"Cement/Lime","nace":"Manufacture of cement","year":2021,"verified":849233,"rank":5},"geometry":{"type":"Point","coordinates":[-7.5755174,54.1292686]}},{"type":"Feature","properties":{"name":"Centro de Produção de Souselas","registry":"Portugal","activity":"Production of cement clinker","activityCategory":"Cement/Lime","nace":"Manufacture of cement","year":2021,"verified":848122,"rank":7},"geometry":{"type":"Point","coordinates":[-8.4192243,40.2949653]}},{"type":"Feature","properties":{"name":"SPP Kompresorová stanica, Trakovice","registry":"Slovakia","activity":"Combustion of fuels","activityCategory":"Combustion","nace":"Production of electricity","year":2021,"verified":847882,"rank":6},"geometry":{"type":"Point","coordinates":[17.7095477,48.4392998]}},{"type":"Feature","properties":{"name":"Zementwerk Schelklingen","registry":"Germany","activity":"Production of cement clinker","activityCategory":"Cement/Lime","nace":"Manufacture of cement","year":2021,"verified":846569,"rank":81},"geometry":{"type":"Point","coordinates":[9.7362731,48.3735177]}},{"type":"Feature","properties":{"name":"CEMEX Hrvatska d.d.","registry":"Croatia","activity":"Production of cement clinker","activityCategory":"Cement/Lime","nace":"Manufacture of cement","year":2021,"verified":844401,"rank":2},"geometry":{"type":"Point","coordinates":[16.4432282,43.5419617]}},{"type":"Feature","properties":{"name":"Iberdrola Generación Térmica-Central C.C.Arcos","registry":"Spain","activity":"Combustion of fuels","activityCategory":"Combustion","nace":"Production of electricity","year":2021,"verified":841953,"rank":18},"geometry":{"type":"Point","coordinates":[-5.8186085,36.7543968]}},{"type":"Feature","properties":{"name":"Gassco AS Kårstø gassprosesseringsanlegg","registry":"Norway","activity":"Combustion of fuels","activityCategory":"Combustion","nace":"Extraction of natural gas","year":2021,"verified":839740,"rank":4},"geometry":{"type":"Point","coordinates":[5.2679869,59.413581]}},