{
"type": "FeatureCollection",
"name": "pplants",
"features": [
{ "type": "Feature", "id": 1, "properties": { "primary_fuel": "Gas", "name": "Surgutskaya GRES-2", "capacity_mw": 8865.0, "year_of_capacity_data": null, "owner": "PJSC \"\"Unipro\"\"", "source": "EnergyBase (RUS)", "url": "https://energybase.ru/power-plant/Surgutskaya_TPP-2", "rank": 1 }, "geometry": { "type": "Point", "coordinates": [ 73.4889, 61.2794 ] } },
{ "type": "Feature", "id": 2, "properties": { "primary_fuel": "Coal", "name": "East Hope Metals Wucaiwan power station", "capacity_mw": 7000.0, "year_of_capacity_data": null, "owner": "Xinjiang East Hope Non-Ferrous Metal Co Ltd.", "source": "GCPT", "url": "https://endcoal.org/global-coal-plant-tracker/", "rank": 1 }, "geometry": { "type": "Point", "coordinates": [ 89.1138, 44.6885 ] } },
{ "type": "Feature", "id": 3, "properties": { "primary_fuel": "Oil", "name": "SHAIBA (SEC)", "capacity_mw": 6794.0, "year_of_capacity_data": null, "owner": "Saudi Electricity Company (SEC)", "source": "ECRA", "url": "http://www.ecra.gov.sa/en-us/DataAndStatistics/NationalRecord/StationCapacities/Pages/Home.aspx", "rank": 1 }, "geometry": { "type": "Point", "coordinates": [ 39.555, 20.63 ] } },
{ "type": "Feature", "id": 4, "properties": { "primary_fuel": "Coal", "name": "Datang Tuoketuo power station", "capacity_mw": 6720.0, "year_of_capacity_data": null, "owner": "Tuoketuo Power Company", "source": "GCPT", "url": "https://endcoal.org/global-coal-plant-tracker/", "rank": 2 }, "geometry": { "type": "Point", "coordinates": [ 111.3589, 40.1947 ] } },
{ "type": "Feature", "id": 5, "properties": { "primary_fuel": "Gas", "name": "Az Zour South CCGT", "capacity_mw": 5805.0, "year_of_capacity_data": null, "owner": "", "source": "Arab Union of Electricity", "url": "http://www.auptde.org/NewsDetails.aspx?lang=en&NID=283", "rank": 2 }, "geometry": { "type": "Point", "coordinates": [ 48.3742, 28.7072 ] } },
{ "type": "Feature", "id": 6, "properties": { "primary_fuel": "Gas", "name": "CHP-23", "capacity_mw": 5690.0, "year_of_capacity_data": null, "owner": "PJSC \"\"Mosenergo\"\"", "source": "EnergyBase (RUS)", "url": "https://energybase.ru/power-plant/CHP-23", "rank": 3 }, "geometry": { "type": "Point", "coordinates": [ 37.6879, 55.9162 ] } },
{ "type": "Feature", "id": 7, "properties": { "primary_fuel": "Coal", "name": "Taizhong Taichung", "capacity_mw": 5500.0, "year_of_capacity_data": null, "owner": "", "source": "Bureau of Ministry  Energy  and Economic Affairs", "url": "https://web3.moeaboe.gov.tw/ECW/english/content/SubMenu.aspx?menu_id=1537", "rank": 3 }, "geometry": { "type": "Point", "coordinates": [ 120.485, 24.2131 ] } },
{ "type": "Feature", "id": 8, "properties": { "primary_fuel": "Coal", "name": "Bełchatów", "capacity_mw": 5472.0, "year_of_capacity_data": null, "owner": "Polska Grupa Energetyczna SA", "source": "ENTSOE", "url": "https://transparency.entsoe.eu/generation/r2/installedCapacityPerProductionUnit/show", "rank": 4 }, "geometry": { "type": "Point", "coordinates": [ 19.3265, 51.2679 ] } },
{ "type": "Feature", "id": 9, "properties": { "primary_fuel": "Gas", "name": "Sabiya", "capacity_mw": 5366.5, "year_of_capacity_data": null, "owner": "", "source": "Arab Union of Electricity", "url": "http://www.auptde.org/NewsDetails.aspx?lang=en&NID=283", "rank": 4 }, "geometry": { "type": "Point", "coordinates": [ 48.171, 29.567 ] } },
{ "type": "Feature", "id": 10, "properties": { "primary_fuel": "Coal", "name": "PLTU Paiton I Unit 7 & 8", "capacity_mw": 5355.0, "year_of_capacity_data": null, "owner": "PT. Paiton Energy Corp", "source": "Indonesia Power Generation", "url": "https://repit.wordpress.com/", "rank": 5 }, "geometry": { "type": "Point", "coordinates": [ 113.5827, -7.7184 ] } },
{ "type": "Feature", "id": 11, "properties": { "primary_fuel": "Coal", "name": "Waigaoqiao power station", "capacity_mw": 5240.0, "year_of_capacity_data": null, "owner": "Shanghai Electric Group Company Limited", "source": "GCPT", "url": "https://endcoal.org/global-coal-plant-tracker/", "rank": 6 }, "geometry": { "type": "Point", "coordinates": [ 121.6003, 31.3536 ] } },
{ "type": "Feature", "id": 12, "properties": { "primary_fuel": "Coal", "name": "Yeongheung", "capacity_mw": 5080.0, "year_of_capacity_data": null, "owner": "Korea South East Power (KOSEP)", "source": "KOSEP", "url": "https://www.kosep.co.kr/kosep/hw/en/ov/ovhw18/main.do?menuCd=EN02030102", "rank": 7 }, "geometry": { "type": "Point", "coordinates": [ 126.4361, 37.2369 ] } },
{ "type": "Feature", "id": 13, "properties": { "primary_fuel": "Coal", "name": "Guodian Beilun power station", "capacity_mw": 5060.0, "year_of_capacity_data": null, "owner": "China Guodian Group Corporation", "source": "GCPT", "url": "https://endcoal.org/global-coal-plant-tracker/", "rank": 8 }, "geometry": { "type": "Point", "coordinates": [ 121.8131, 29.9433 ] } },
{ "type": "Feature", "id": 14, "properties": { "primary_fuel": "Gas", "name": "Futtsu", "capacity_mw": 5040.0, "year_of_capacity_data": null, "owner": "Tokyo", "source": "Japanese Electric Power Information Center", "url": "https://www.jepic.or.jp/en/", "rank": 5 }, "geometry": { "type": "Point", "coordinates": [ 139.8319, 35.3421 ] } },
{ "type": "Feature", "id": 15, "properties": { "primary_fuel": "Coal", "name": "Guohua Taishan power station", "capacity_mw": 5000.0, "year_of_capacity_data": null, "owner": "Shenhua Guohua Electric Power Corporation", "source": "GCPT", "url": "https://endcoal.org/global-coal-plant-tracker/", "rank": 9 }, "geometry": { "type": "Point", "coordinates": [ 112.9228, 21.8664 ] } },
{ "type": "Feature", "id": 16, "properties": { "primary_fuel": "Coal", "name": "Jiaxing power station", "capacity_mw": 5000.0, "year_of_capacity_data": null, "owner": "Jiaxing Power Generation Co Ltd", "source": "GCPT", "url": "https://endcoal.org/global-coal-plant-tracker/", "rank": 10 }, "geometry": { "type": "Point", "coordinates": [ 121.1436, 30.6283 ] } },
{ "type": "Feature", "id": 17, "properties": { "primary_fuel": "Gas", "name": "Shuweihat S1", "capacity_mw": 4889.0, "year_of_capacity_data": null, "owner": "Shuweihat CMS International Power Company", "source": "Arab Union of Electricity", "url": "http://www.auptde.org/NewsDetails.aspx?lang=en&NID=292", "rank": 6 }, "geometry": { "type": "Point", "coordinates": [ 52.568, 24.165 ] } },
{ "type": "Feature", "id": 18, "properties": { "primary_fuel": "Gas", "name": "Higashi Niigata", "capacity_mw": 4810.0, "year_of_capacity_data": null, "owner": "Tohoku", "source": "Japanese Electric Power Information Center", "url": "https://www.jepic.or.jp/en/", "rank": 7 }, "geometry": { "type": "Point", "coordinates": [ 139.2373, 37.9963 ] } },
{ "type": "Feature", "id": 19, "properties": { "primary_fuel": "Gas", "name": "Kawagoe", "capacity_mw": 4802.0, "year_of_capacity_data": null, "owner": "Chubu", "source": "Japanese Electric Power Information Center", "url": "https://www.jepic.or.jp/en/", "rank": 8 }, "geometry": { "type": "Point", "coordinates": [ 136.689, 35.0076 ] } },
{ "type": "Feature", "id": 20, "properties": { "primary_fuel": "Coal", "name": "VINDH_CHAL STPS", "capacity_mw": 4760.0, "year_of_capacity_data": 2019, "owner": "", "source": "Central Electricity Authority", "url": "http://www.cea.nic.in/", "rank": 11 }, "geometry": { "type": "Point", "coordinates": [ 82.6719, 24.0983 ] } },
{ "type": "Feature", "id": 21, "properties": { "primary_fuel": "Coal", "name": "MUNDRA TPP", "capacity_mw": 4620.0, "year_of_capacity_data": 2019, "owner": "", "source": "Central Electricity Authority", "url": "http://www.cea.nic.in/", "rank": 12 }, "geometry": { "type": "Point", "coordinates": [ 69.5532, 22.823 ] } },
{ "type": "Feature", "id": 22, "properties": { "primary_fuel": "Coal", "name": "CPI Pingwei power station", "capacity_mw": 4540.0, "year_of_capacity_data": null, "owner": "China Power Investment Corporation (CPI)", "source": "GCPT", "url": "https://endcoal.org/global-coal-plant-tracker/", "rank": 13 }, "geometry": { "type": "Point", "coordinates": [ 116.9021, 32.6842 ] } },
{ "type": "Feature", "id": 23, "properties": { "primary_fuel": "Coal", "name": "Zouxian power station", "capacity_mw": 4540.0, "year_of_capacity_data": null, "owner": "China Huadian Corporation", "source": "GCPT", "url": "https://endcoal.org/global-coal-plant-tracker/", "rank": 14 }, "geometry": { "type": "Point", "coordinates": [ 116.9261, 35.3256 ] } },
{ "type": "Feature", "id": 24, "properties": { "primary_fuel": "Coal", "name": "Datong - Tashan Coal", "capacity_mw": 4520.0, "year_of_capacity_data": null, "owner": "Tongmei Tashan Power Station", "source": "Industry About", "url": "https://industryabout.com/country-territories-3/1705-china/fossil-fuels-energy/33540-datong-tashan-coal-power-plant", "rank": 15 }, "geometry": { "type": "Point", "coordinates": [ 113.0843, 39.9261 ] } },
{ "type": "Feature", "id": 25, "properties": { "primary_fuel": "Coal", "name": "Huaneng Qinbei power station", "capacity_mw": 4400.0, "year_of_capacity_data": null, "owner": "Huaneng Power International Ruiyang Co Ltd", "source": "GCPT", "url": "https://endcoal.org/global-coal-plant-tracker/", "rank": 16 }, "geometry": { "type": "Point", "coordinates": [ 112.7162, 35.1679 ] } },
{ "type": "Feature", "id": 26, "properties": { "primary_fuel": "Coal", "name": "Ninghai power station", "capacity_mw": 4400.0, "year_of_capacity_data": null, "owner": "Shenhua Guohua Electric Power Co Ltd", "source": "GCPT", "url": "https://endcoal.org/global-coal-plant-tracker/", "rank": 17 }, "geometry": { "type": "Point", "coordinates": [ 121.5109, 29.481 ] } },
{ "type": "Feature", "id": 27, "properties": { "primary_fuel": "Oil", "name": "Hirono", "capacity_mw": 4400.0, "year_of_capacity_data": null, "owner": "Tokyo", "source": "Japanese Electric Power Information Center", "url": "https://www.jepic.or.jp/en/", "rank": 2 }, "geometry": { "type": "Point", "coordinates": [ 141.0162, 37.2351 ] } },
{ "type": "Feature", "id": 28, "properties": { "primary_fuel": "Oil", "name": "Kashima", "capacity_mw": 4400.0, "year_of_capacity_data": null, "owner": "Tokyo", "source": "Japanese Electric Power Information Center", "url": "https://www.jepic.or.jp/en/", "rank": 3 }, "geometry": { "type": "Point", "coordinates": [ 140.6888, 35.9409 ] } },
{ "type": "Feature", "id": 29, "properties": { "primary_fuel": "Gas", "name": "Bang Pakong", "capacity_mw": 4384.0, "year_of_capacity_data": null, "owner": "Electric Generating Authority of Thailand", "source": "EGAT", "url": "http://www.egat.co.th/en/index.php?option=com_content&view=article&id=92&Itemid=118", "rank": 9 }, "geometry": { "type": "Point", "coordinates": [ 101.0253, 13.501 ] } },
{ "type": "Feature", "id": 30, "properties": { "primary_fuel": "Gas", "name": "Dah-Tarn", "capacity_mw": 4380.0, "year_of_capacity_data": null, "owner": "", "source": "Bureau of Ministry  Energy  and Economic Affairs", "url": "https://web3.moeaboe.gov.tw/ECW/english/content/SubMenu.aspx?menu_id=1537", "rank": 10 }, "geometry": { "type": "Point", "coordinates": [ 121.048, 25.027 ] } },
{ "type": "Feature", "id": 31, "properties": { "primary_fuel": "Oil", "name": "RABIGH", "capacity_mw": 4348.3, "year_of_capacity_data": null, "owner": "Saudi Electricity Company (SEC)", "source": "ECRA", "url": "http://www.ecra.gov.sa/en-us/DataAndStatistics/NationalRecord/StationCapacities/Pages/Home.aspx", "rank": 4 }, "geometry": { "type": "Point", "coordinates": [ 39.033, 22.66 ] } },
{ "type": "Feature", "id": 32, "properties": { "primary_fuel": "Gas", "name": "West County Energy Center", "capacity_mw": 4263.0, "year_of_capacity_data": 2019, "owner": "Florida Power & Light Co", "source": "U.S. Energy Information Administration", "url": "http://www.eia.gov/electricity/data/browser/", "rank": 11 }, "geometry": { "type": "Point", "coordinates": [ -80.3747, 26.6986 ] } },
{ "type": "Feature", "id": 33, "properties": { "primary_fuel": "Gas", "name": "GHAZLAN", "capacity_mw": 4256.0, "year_of_capacity_data": null, "owner": "Saudi Electricity Company (SEC)", "source": "ECRA", "url": "http://www.ecra.gov.sa/en-us/DataAndStatistics/NationalRecord/StationCapacities/Pages/Home.aspx", "rank": 12 }, "geometry": { "type": "Point", "coordinates": [ 49.896, 26.85 ] } },
{ "type": "Feature", "id": 34, "properties": { "primary_fuel": "Coal", "name": "Houshi power station", "capacity_mw": 4200.0, "year_of_capacity_data": null, "owner": "Huayang Electric Power Co Ltd", "source": "GCPT", "url": "https://endcoal.org/global-coal-plant-tracker/", "rank": 18 }, "geometry": { "type": "Point", "coordinates": [ 118.1261, 24.3031 ] } },
{ "type": "Feature", "id": 35, "properties": { "primary_fuel": "Coal", "name": "Huaneng Yuhuan power station", "capacity_mw": 4200.0, "year_of_capacity_data": null, "owner": "China Huaneng Group Corporation (CHNG)", "source": "GCPT", "url": "https://endcoal.org/global-coal-plant-tracker/", "rank": 19 }, "geometry": { "type": "Point", "coordinates": [ 121.1398, 28.1142 ] } },
{ "type": "Feature", "id": 36, "properties": { "primary_fuel": "Coal", "name": "Mailao", "capacity_mw": 4200.0, "year_of_capacity_data": null, "owner": "", "source": "Bureau of Ministry  Energy  and Economic Affairs", "url": "https://web3.moeaboe.gov.tw/ECW/english/content/SubMenu.aspx?menu_id=1537", "rank": 20 }, "geometry": { "type": "Point", "coordinates": [ 120.1902, 23.8033 ] } },
{ "type": "Feature", "id": 37, "properties": { "primary_fuel": "Coal", "name": "Manjung power station", "capacity_mw": 4180.0, "year_of_capacity_data": null, "owner": "TNB Janamanjung Sdn Bhd", "source": "GCPT", "url": "https://endcoal.org/global-coal-plant-tracker/", "rank": 21 }, "geometry": { "type": "Point", "coordinates": [ 100.6423, 4.1586 ] } },
{ "type": "Feature", "id": 38, "properties": { "primary_fuel": "Coal", "name": "Huaneng Haimen power station", "capacity_mw": 4144.0, "year_of_capacity_data": null, "owner": "China Huaneng Group Corporation (CHNG)", "source": "GCPT", "url": "https://endcoal.org/global-coal-plant-tracker/", "rank": 22 }, "geometry": { "type": "Point", "coordinates": [ 116.6553, 23.1899 ] } },
{ "type": "Feature", "id": 39, "properties": { "primary_fuel": "Coal", "name": "Kendal power station", "capacity_mw": 4116.0, "year_of_capacity_data": null, "owner": "Eskom", "source": "GCPT", "url": "https://endcoal.org/global-coal-plant-tracker/", "rank": 23 }, "geometry": { "type": "Point", "coordinates": [ 28.9689, -26.088 ] } },
{ "type": "Feature", "id": 40, "properties": { "primary_fuel": "Coal", "name": "Majuba power station", "capacity_mw": 4110.0, "year_of_capacity_data": null, "owner": "Eskom", "source": "Eskom", "url": "http://www.eskom.co.za/OurCompany/PhotoGallery/Pages/Eskom_Power_Stations.aspx", "rank": 24 }, "geometry": { "type": "Point", "coordinates": [ 29.7706, -27.0955 ] } },
{ "type": "Feature", "id": 41, "properties": { "primary_fuel": "Coal", "name": "Castle Peak power station", "capacity_mw": 4108.0, "year_of_capacity_data": null, "owner": "Castle Peak Power Company Limited (CAPCO)", "source": "GCPT", "url": "https://endcoal.org/global-coal-plant-tracker/", "rank": 25 }, "geometry": { "type": "Point", "coordinates": [ 113.9214, 22.376 ] } },
{ "type": "Feature", "id": 42, "properties": { "primary_fuel": "Coal", "name": "Hekinan power station", "capacity_mw": 4100.0, "year_of_capacity_data": null, "owner": "Chubu Electric Power Co Inc", "source": "GCPT", "url": "https://endcoal.org/global-coal-plant-tracker/", "rank": 26 }, "geometry": { "type": "Point", "coordinates": [ 136.9609, 34.8352 ] } },
{ "type": "Feature", "id": 43, "properties": { "primary_fuel": "Gas", "name": "Hajr for Electricity Production Co. Station", "capacity_mw": 4098.0, "year_of_capacity_data": null, "owner": "Hajr for Electricity Production Company", "source": "ECRA", "url": "http://www.ecra.gov.sa/en-us/DataAndStatistics/NationalRecord/StationCapacities/Pages/Home.aspx", "rank": 13 }, "geometry": { "type": "Point", "coordinates": [ 50.132, 25.83 ] } },
{ "type": "Feature", "id": 44, "properties": { "primary_fuel": "Coal", "name": "W A Parish", "capacity_mw": 4008.4, "year_of_capacity_data": 2019, "owner": "NRG Texas Power LLC", "source": "U.S. Energy Information Administration", "url": "http://www.eia.gov/electricity/data/browser/", "rank": 27 }, "geometry": { "type": "Point", "coordinates": [ -95.6311, 29.4828 ] } },
{ "type": "Feature", "id": 45, "properties": { "primary_fuel": "Coal", "name": "Guodian Taizhou power station", "capacity_mw": 4000.0, "year_of_capacity_data": null, "owner": "China Guodian Group Corporation", "source": "GCPT", "url": "https://endcoal.org/global-coal-plant-tracker/", "rank": 28 }, "geometry": { "type": "Point", "coordinates": [ 119.9145, 32.1872 ] } },
{ "type": "Feature", "id": 46, "properties": { "primary_fuel": "Coal", "name": "MUNDRA UMPP", "capacity_mw": 4000.0, "year_of_capacity_data": 2019, "owner": "", "source": "Central Electricity Authority", "url": "http://www.cea.nic.in/", "rank": 29 }, "geometry": { "type": "Point", "coordinates": [ 69.5281, 22.8158 ] } },
{ "type": "Feature", "id": 47, "properties": { "primary_fuel": "Coal", "name": "Ekibastuz-1 power station", "capacity_mw": 4000.0, "year_of_capacity_data": null, "owner": "Samruk-Energo JSC", "source": "Samruk Energy", "url": "http://www.samruk-energy.kz/en/group/llp-ekibastuz-sdps-1", "rank": 30 }, "geometry": { "type": "Point", "coordinates": [ 75.377, 51.888 ] } },
{ "type": "Feature", "id": 48, "properties": { "primary_fuel": "Coal", "name": "Boryeong (poryang)", "capacity_mw": 4000.0, "year_of_capacity_data": null, "owner": "Korea Midland Power (KOMIPO)", "source": "KOMIPO", "url": "http://komipo.en.ec21.com/Coal_fired_power_plants--487304_487306.html", "rank": 31 }, "geometry": { "type": "Point", "coordinates": [ 126.49, 36.402 ] } },
{ "type": "Feature", "id": 49, "properties": { "primary_fuel": "Coal", "name": "Dangjin", "capacity_mw": 4000.0, "year_of_capacity_data": null, "owner": "Korea East West Power", "source": "KEWP", "url": "http://www.ewp.co.kr/eng/main/main.asp", "rank": 32 }, "geometry": { "type": "Point", "coordinates": [ 126.5133, 37.0543 ] } },
{ "type": "Feature", "id": 50, "properties": { "primary_fuel": "Coal", "name": "Hadong", "capacity_mw": 4000.0, "year_of_capacity_data": null, "owner": "Korea Southern Power", "source": "KSP", "url": "https://www.kospo.co.kr/english/?mn=sub&mcode=01030100", "rank": 33 }, "geometry": { "type": "Point", "coordinates": [ 127.8213, 34.9512 ] } },
{ "type": "Feature", "id": 51, "properties": { "primary_fuel": "Coal", "name": "Taean", "capacity_mw": 4000.0, "year_of_capacity_data": null, "owner": "Korea Western Power", "source": "KWP", "url": "https://www.iwest.co.kr/eng/sub.asp?mid=1280&act=abou0602", "rank": 34 }, "geometry": { "type": "Point", "coordinates": [ 126.233, 36.904 ] } },
{ "type": "Feature", "id": 52, "properties": { "primary_fuel": "Coal", "name": "Datong power station", "capacity_mw": 3990.0, "year_of_capacity_data": null, "owner": "Guodian Shanxi Branch Co Ltd", "source": "GCPT", "url": "https://endcoal.org/global-coal-plant-tracker/", "rank": 35 }, "geometry": { "type": "Point", "coordinates": [ 113.2933, 40.0279 ] } },
{ "type": "Feature", "id": 53, "properties": { "primary_fuel": "Coal", "name": "Matimba power station", "capacity_mw": 3990.0, "year_of_capacity_data": null, "owner": "Eskom", "source": "GCPT", "url": "https://endcoal.org/global-coal-plant-tracker/", "rank": 36 }, "geometry": { "type": "Point", "coordinates": [ 27.6128, -23.6678 ] } },
{ "type": "Feature", "id": 54, "properties": { "primary_fuel": "Coal", "name": "Guangdong Shajiao power complex", "capacity_mw": 3970.0, "year_of_capacity_data": null, "owner": "Guangdong Guanghope Power Co Ltd", "source": "GCPT", "url": "https://endcoal.org/global-coal-plant-tracker/", "rank": 37 }, "geometry": { "type": "Point", "coordinates": [ 113.6807, 22.7489 ] } },
{ "type": "Feature", "id": 55, "properties": { "primary_fuel": "Oil", "name": "Chita", "capacity_mw": 3966.0, "year_of_capacity_data": null, "owner": "Chubu", "source": "Japanese Electric Power Information Center", "url": "https://www.jepic.or.jp/en/", "rank": 5 }, "geometry": { "type": "Point", "coordinates": [ 136.8436, 34.9867 ] } },
{ "type": "Feature", "id": 56, "properties": { "primary_fuel": "Coal", "name": "Ligang power station", "capacity_mw": 3960.0, "year_of_capacity_data": null, "owner": "CITIC Limited", "source": "GCPT", "url": "https://endcoal.org/global-coal-plant-tracker/", "rank": 38 }, "geometry": { "type": "Point", "coordinates": [ 120.0764, 31.9403 ] } },
{ "type": "Feature", "id": 57, "properties": { "primary_fuel": "Coal", "name": "Xinyuan Aluminum power station", "capacity_mw": 3960.0, "year_of_capacity_data": null, "owner": "Chiping Xinyuan Aluminum Co Ltd", "source": "GCPT", "url": "https://endcoal.org/global-coal-plant-tracker/", "rank": 39 }, "geometry": { "type": "Point", "coordinates": [ 116.2194, 36.6148 ] } },
{ "type": "Feature", "id": 58, "properties": { "primary_fuel": "Coal", "name": "SASAN UMPP", "capacity_mw": 3960.0, "year_of_capacity_data": 2019, "owner": "", "source": "Central Electricity Authority", "url": "http://www.cea.nic.in/", "rank": 40 }, "geometry": { "type": "Point", "coordinates": [ 82.6275, 23.9784 ] } },
{ "type": "Feature", "id": 59, "properties": { "primary_fuel": "Gas", "name": "QURAYYAH- CC", "capacity_mw": 3846.0, "year_of_capacity_data": null, "owner": "Saudi Electricity Company (SEC)", "source": "ECRA", "url": "http://www.ecra.gov.sa/en-us/DataAndStatistics/NationalRecord/StationCapacities/Pages/Home.aspx", "rank": 14 }, "geometry": { "type": "Point", "coordinates": [ 50.118, 25.86 ] } },
{ "type": "Feature", "id": 60, "properties": { "primary_fuel": "Coal", "name": "Shidongkou power station", "capacity_mw": 3820.0, "year_of_capacity_data": null, "owner": "China Huaneng Group Corporation (CHNG)", "source": "GCPT", "url": "https://endcoal.org/global-coal-plant-tracker/", "rank": 41 }, "geometry": { "type": "Point", "coordinates": [ 121.4048, 31.4651 ] } },
{ "type": "Feature", "id": 61, "properties": { "primary_fuel": "Coal", "name": "Reftinskaya GRES", "capacity_mw": 3800.0, "year_of_capacity_data": null, "owner": "PJSC \"\"Enel Russia\"\"", "source": "EnergyBase (RUS)", "url": "https://energybase.ru/power-plant/Reftinskaya_TPP", "rank": 42 }, "geometry": { "type": "Point", "coordinates": [ 61.7117, 57.1067 ] } },
{ "type": "Feature", "id": 62, "properties": { "primary_fuel": "Coal", "name": "Suizhong power station", "capacity_mw": 3760.0, "year_of_capacity_data": null, "owner": "CSEC Guohua Intl Power Co Ltd", "source": "GCPT", "url": "https://endcoal.org/global-coal-plant-tracker/", "rank": 43 }, "geometry": { "type": "Point", "coordinates": [ 120.0089, 40.0793 ] } },
{ "type": "Feature", "id": 63, "properties": { "primary_fuel": "Coal", "name": "Huaneng Shangdu power station", "capacity_mw": 3720.0, "year_of_capacity_data": null, "owner": "North United Power Co Ltd", "source": "GCPT", "url": "https://endcoal.org/global-coal-plant-tracker/", "rank": 44 }, "geometry": { "type": "Point", "coordinates": [ 116.0293, 42.2237 ] } },
{ "type": "Feature", "id": 64, "properties": { "primary_fuel": "Coal", "name": "Lethabo power station", "capacity_mw": 3708.0, "year_of_capacity_data": null, "owner": "Eskom", "source": "GCPT", "url": "https://endcoal.org/global-coal-plant-tracker/", "rank": 45 }, "geometry": { "type": "Point", "coordinates": [ 27.975, -26.7403 ] } },
{ "type": "Feature", "id": 65, "properties": { "primary_fuel": "Coal", "name": "Tutuka power station", "capacity_mw": 3654.0, "year_of_capacity_data": null, "owner": "Eskom", "source": "GCPT", "url": "https://endcoal.org/global-coal-plant-tracker/", "rank": 46 }, "geometry": { "type": "Point", "coordinates": [ 29.3527, -26.7767 ] } },
{ "type": "Feature", "id": 66, "properties": { "primary_fuel": "Gas", "name": "Ratchaburi (RATCHGEN)", "capacity_mw": 3645.0, "year_of_capacity_data": null, "owner": "Ratchaburi Electric Generating Company", "source": "Ratchaburi Electric Generating Company", "url": "http://www.ratch.co.th/en/business/project-location/thailand", "rank": 15 }, "geometry": { "type": "Point", "coordinates": [ 99.8841, 13.5979 ] } },
{ "type": "Feature", "id": 67, "properties": { "primary_fuel": "Coal", "name": "Wujiaqu power station", "capacity_mw": 3640.0, "year_of_capacity_data": null, "owner": "Xinjiang Nongliushi Coal & Electricity Company", "source": "GCPT", "url": "https://endcoal.org/global-coal-plant-tracker/", "rank": 47 }, "geometry": { "type": "Point", "coordinates": [ 87.6881, 44.2686 ] } },
{ "type": "Feature", "id": 68, "properties": { "primary_fuel": "Oil", "name": "Riyadh 9", "capacity_mw": 3616.6, "year_of_capacity_data": null, "owner": "Saudi Electricity Company (SEC)", "source": "ECRA", "url": "http://www.ecra.gov.sa/en-us/DataAndStatistics/NationalRecord/StationCapacities/Pages/Home.aspx", "rank": 6 }, "geometry": { "type": "Point", "coordinates": [ 47.065, 24.95 ] } },
{ "type": "Feature", "id": 69, "properties": { "primary_fuel": "Oil", "name": "Anegasaki", "capacity_mw": 3600.0, "year_of_capacity_data": null, "owner": "Tokyo", "source": "Japanese Electric Power Information Center", "url": "https://www.jepic.or.jp/en/", "rank": 7 }, "geometry": { "type": "Point", "coordinates": [ 140.0172, 35.4845 ] } },
{ "type": "Feature", "id": 70, "properties": { "primary_fuel": "Gas", "name": "Sodegaura", "capacity_mw": 3600.0, "year_of_capacity_data": null, "owner": "Tokyo", "source": "Japanese Electric Power Information Center", "url": "https://www.jepic.or.jp/en/", "rank": 16 }, "geometry": { "type": "Point", "coordinates": [ 139.977, 35.4619 ] } },
{ "type": "Feature", "id": 71, "properties": { "primary_fuel": "Gas", "name": "Krostromskaya", "capacity_mw": 3600.0, "year_of_capacity_data": null, "owner": "Inter RAO", "source": "Inter RAO", "url": "http://irao-generation.com/en/stations/", "rank": 17 }, "geometry": { "type": "Point", "coordinates": [ 41.1741, 57.4596 ] } },
{ "type": "Feature", "id": 72, "properties": { "primary_fuel": "Coal", "name": "Duvha power station", "capacity_mw": 3600.0, "year_of_capacity_data": null, "owner": "Eskom", "source": "GCPT", "url": "https://endcoal.org/global-coal-plant-tracker/", "rank": 48 }, "geometry": { "type": "Point", "coordinates": [ 29.3409, -25.9595 ] } },
{ "type": "Feature", "id": 73, "properties": { "primary_fuel": "Coal", "name": "Matla power station", "capacity_mw": 3600.0, "year_of_capacity_data": null, "owner": "Eskom", "source": "GCPT", "url": "https://endcoal.org/global-coal-plant-tracker/", "rank": 49 }, "geometry": { "type": "Point", "coordinates": [ 29.1423, -26.2804 ] } },
{ "type": "Feature", "id": 74, "properties": { "primary_fuel": "Coal", "name": "Vuglegirska power station", "capacity_mw": 3600.0, "year_of_capacity_data": null, "owner": "Centrenergo", "source": "Centrenergo", "url": "http://www.centrenergo.com/en/divisions/vug/", "rank": 50 }, "geometry": { "type": "Point", "coordinates": [ 38.2027, 48.4652 ] } },
{ "type": "Feature", "id": 75, "properties": { "primary_fuel": "Coal", "name": "Scherer", "capacity_mw": 3564.0, "year_of_capacity_data": 2019, "owner": "Georgia Power Co", "source": "U.S. Energy Information Administration", "url": "http://www.eia.gov/electricity/data/browser/", "rank": 51 }, "geometry": { "type": "Point", "coordinates": [ -83.8075, 33.0606 ] } },
{ "type": "Feature", "id": 76, "properties": { "primary_fuel": "Coal", "name": "Bowen", "capacity_mw": 3498.6, "year_of_capacity_data": 2019, "owner": "Georgia Power Co", "source": "U.S. Energy Information Administration", "url": "http://www.eia.gov/electricity/data/browser/", "rank": 52 }, "geometry": { "type": "Point", "coordinates": [ -84.9222, 34.1256 ] } },
{ "type": "Feature", "id": 77, "properties": { "primary_fuel": "Gas", "name": "Crystal River", "capacity_mw": 3449.0, "year_of_capacity_data": 2019, "owner": "Duke Energy Florida  LLC", "source": "U.S. Energy Information Administration", "url": "http://www.eia.gov/electricity/data/browser/", "rank": 18 }, "geometry": { "type": "Point", "coordinates": [ -82.6977, 28.9656 ] } },
{ "type": "Feature", "id": 78, "properties": { "primary_fuel": "Gas", "name": "MONTALTO (Alessandro Volta)", "capacity_mw": 3446.0, "year_of_capacity_data": null, "owner": "ENEL", "source": "ENEL", "url": "https://www.futur-e.enel.it/cs/Satellite?blobcol=urldata&blobheader=application%2Fpdf&blobheadername1=Content-Disposition&blobheadername2=MDT-Type&blobheadervalue1=inline%3B+filename%3Dmontalto-ita_2.pdf&blobheadervalue2=abinary%3B+charset%3DUTF-8&blobkey=id&blobtable=MungoBlobs&blobwhere=1445865128793&ssbinary=true", "rank": 19 }, "geometry": { "type": "Point", "coordinates": [ 11.5373, 42.3572 ] } },
{ "type": "Feature", "id": 79, "properties": { "primary_fuel": "Coal", "name": "Niederaussem power station", "capacity_mw": 3430.0, "year_of_capacity_data": null, "owner": "RWE Power AG", "source": "Open Power System Data", "url": "http://data.open-power-system-data.org/", "rank": 53 }, "geometry": { "type": "Point", "coordinates": [ 6.6685, 50.993 ] } },
{ "type": "Feature", "id": 80, "properties": { "primary_fuel": "Coal", "name": "Jiangsu Nantong power station", "capacity_mw": 3404.0, "year_of_capacity_data": null, "owner": "China Huaneng Group Corporation (CHNG)", "source": "GCPT", "url": "https://endcoal.org/global-coal-plant-tracker/", "rank": 54 }, "geometry": { "type": "Point", "coordinates": [ 120.7692, 32.0321 ] } },
{ "type": "Feature", "id": 81, "properties": { "primary_fuel": "Coal", "name": "Huaneng Yimin power station", "capacity_mw": 3400.0, "year_of_capacity_data": null, "owner": "Huaneng Yimin Coal & Electric Co Ltd", "source": "GCPT", "url": "https://endcoal.org/global-coal-plant-tracker/", "rank": 55 }, "geometry": { "type": "Point", "coordinates": [ 119.7739, 48.5497 ] } },
{ "type": "Feature", "id": 82, "properties": { "primary_fuel": "Coal", "name": "PLTU Suralaya", "capacity_mw": 3400.0, "year_of_capacity_data": null, "owner": "PLN -.PT Indonesia Power", "source": "Indonesia Power Generation", "url": "https://repit.wordpress.com/", "rank": 56 }, "geometry": { "type": "Point", "coordinates": [ 106.03, -5.892 ] } },
{ "type": "Feature", "id": 83, "properties": { "primary_fuel": "Gas", "name": "Permskaya", "capacity_mw": 3363.0, "year_of_capacity_data": null, "owner": "JSC INTER RAO-Electric Power Generation", "source": "EnergyBase (RUS)", "url": "https://energybase.ru/power-plant/Permskaya_TPP", "rank": 20 }, "geometry": { "type": "Point", "coordinates": [ 56.3471, 58.4959 ] } },
{ "type": "Feature", "id": 84, "properties": { "primary_fuel": "Coal", "name": "SDIC Qinzhou power station", "capacity_mw": 3360.0, "year_of_capacity_data": null, "owner": "SDIC Huajing Power Holdings Ltd", "source": "GCPT", "url": "https://endcoal.org/global-coal-plant-tracker/", "rank": 57 }, "geometry": { "type": "Point", "coordinates": [ 108.625, 21.7012 ] } },
{ "type": "Feature", "id": 85, "properties": { "primary_fuel": "Coal", "name": "Xuzhou Pengcheng power station", "capacity_mw": 3340.0, "year_of_capacity_data": null, "owner": "China Resources Power Holdings Co Ltd", "source": "GCPT", "url": "https://endcoal.org/global-coal-plant-tracker/", "rank": 58 }, "geometry": { "type": "Point", "coordinates": [ 117.1763, 34.3781 ] } },
{ "type": "Feature", "id": 86, "properties": { "primary_fuel": "Coal", "name": "Gibson", "capacity_mw": 3339.5, "year_of_capacity_data": 2019, "owner": "Duke Energy Indiana  LLC", "source": "U.S. Energy Information Administration", "url": "http://www.eia.gov/electricity/data/browser/", "rank": 59 }, "geometry": { "type": "Point", "coordinates": [ -87.7658, 38.3722 ] } },
{ "type": "Feature", "id": 87, "properties": { "primary_fuel": "Oil", "name": "Yokohama", "capacity_mw": 3325.0, "year_of_capacity_data": null, "owner": "Tokyo", "source": "Japanese Electric Power Information Center", "url": "https://www.jepic.or.jp/en/", "rank": 8 }, "geometry": { "type": "Point", "coordinates": [ 139.679, 35.4768 ] } },
{ "type": "Feature", "id": 88, "properties": { "primary_fuel": "Coal", "name": "CPI Changshu-1 power station", "capacity_mw": 3320.0, "year_of_capacity_data": null, "owner": "China Power Investment Corporation (CPI)", "source": "GCPT", "url": "https://endcoal.org/global-coal-plant-tracker/", "rank": 60 }, "geometry": { "type": "Point", "coordinates": [ 120.9731, 31.7563 ] } },
{ "type": "Feature", "id": 89, "properties": { "primary_fuel": "Coal", "name": "Huadian Ningxia Lingwu power station", "capacity_mw": 3320.0, "year_of_capacity_data": null, "owner": "Huadian Power International Company Limited", "source": "GCPT", "url": "https://endcoal.org/global-coal-plant-tracker/", "rank": 61 }, "geometry": { "type": "Point", "coordinates": [ 106.3463, 38.1483 ] } },
{ "type": "Feature", "id": 90, "properties": { "primary_fuel": "Coal", "name": "Yangcheng power station", "capacity_mw": 3300.0, "year_of_capacity_data": null, "owner": "Shanxi Datang International Power Generation Co Ltd", "source": "GCPT", "url": "https://endcoal.org/global-coal-plant-tracker/", "rank": 62 }, "geometry": { "type": "Point", "coordinates": [ 112.5739, 35.467 ] } },
{ "type": "Feature", "id": 91, "properties": { "primary_fuel": "Coal", "name": "TIRORA TPP", "capacity_mw": 3300.0, "year_of_capacity_data": 2019, "owner": "", "source": "Central Electricity Authority", "url": "http://www.cea.nic.in/", "rank": 63 }, "geometry": { "type": "Point", "coordinates": [ 79.9671, 21.4129 ] } },
{ "type": "Feature", "id": 92, "properties": { "primary_fuel": "Coal", "name": "Monroe (MI)", "capacity_mw": 3293.1, "year_of_capacity_data": 2019, "owner": "DTE Electric Company", "source": "U.S. Energy Information Administration", "url": "http://www.eia.gov/electricity/data/browser/", "rank": 64 }, "geometry": { "type": "Point", "coordinates": [ -83.3464, 41.8906 ] } },
{ "type": "Feature", "id": 93, "properties": { "primary_fuel": "Coal", "name": "Hanchuan power station", "capacity_mw": 3260.0, "year_of_capacity_data": null, "owner": "Guodian Changyuan Electric Power Co Ltd", "source": "GCPT", "url": "https://endcoal.org/global-coal-plant-tracker/", "rank": 65 }, "geometry": { "type": "Point", "coordinates": [ 113.9173, 30.6565 ] } },
{ "type": "Feature", "id": 94, "properties": { "primary_fuel": "Coal", "name": "Zhangjiagang Shazhou power station", "capacity_mw": 3260.0, "year_of_capacity_data": null, "owner": "Beijing Sanjili Energy Co Ltd", "source": "GCPT", "url": "https://endcoal.org/global-coal-plant-tracker/", "rank": 66 }, "geometry": { "type": "Point", "coordinates": [ 120.6884, 31.989 ] } },
{ "type": "Feature", "id": 95, "properties": { "primary_fuel": "Coal", "name": "Tanjung Bin power station", "capacity_mw": 3244.0, "year_of_capacity_data": null, "owner": "Malakoff Bhd", "source": "GCPT", "url": "https://endcoal.org/global-coal-plant-tracker/", "rank": 67 }, "geometry": { "type": "Point", "coordinates": [ 103.5422, 1.334 ] } },
{ "type": "Feature", "id": 96, "properties": { "primary_fuel": "Coal", "name": "Samcheonpo", "capacity_mw": 3240.0, "year_of_capacity_data": null, "owner": "Korea South East Power (KOSEP)", "source": "KOSEP", "url": "https://www.kosep.co.kr/kosep/hw/en/ov/ovhw18/main.do?menuCd=EN02030102", "rank": 68 }, "geometry": { "type": "Point", "coordinates": [ 128.1085, 34.9103 ] } },
{ "type": "Feature", "id": 97, "properties": { "primary_fuel": "Coal", "name": "Chaozhou Sanbaimen power station", "capacity_mw": 3200.0, "year_of_capacity_data": null, "owner": "Datang International Power Generation Company", "source": "GCPT", "url": "https://endcoal.org/global-coal-plant-tracker/", "rank": 69 }, "geometry": { "type": "Point", "coordinates": [ 117.0973, 23.5655 ] } },
{ "type": "Feature", "id": 98, "properties": { "primary_fuel": "Coal", "name": "Fujian Hongshan power station", "capacity_mw": 3200.0, "year_of_capacity_data": null, "owner": "Fujian Hongshan Thermal Power", "source": "GCPT", "url": "https://endcoal.org/global-coal-plant-tracker/", "rank": 70 }, "geometry": { "type": "Point", "coordinates": [ 118.7497, 24.7277 ] } },
{ "type": "Feature", "id": 99, "properties": { "primary_fuel": "Coal", "name": "Guangdong Huilai power station", "capacity_mw": 3200.0, "year_of_capacity_data": null, "owner": "Guangdong Yudean Group Co Ltd", "source": "GCPT", "url": "https://endcoal.org/global-coal-plant-tracker/", "rank": 71 }, "geometry": { "type": "Point", "coordinates": [ 116.5468, 23.0056 ] } },
{ "type": "Feature", "id": 100, "properties": { "primary_fuel": "Coal", "name": "Dalate power station", "capacity_mw": 3180.0, "year_of_capacity_data": null, "owner": "North United Power Co Ltd", "source": "GCPT", "url": "https://endcoal.org/global-coal-plant-tracker/", "rank": 72 }, "geometry": { "type": "Point", "coordinates": [ 109.997, 40.367 ] } },
{ "type": "Feature", "id": 101, "properties": { "primary_fuel": "Oil", "name": "Riyadh 10", "capacity_mw": 3160.61, "year_of_capacity_data": null, "owner": "Saudi Electricity Company (SEC)", "source": "ECRA", "url": "http://www.ecra.gov.sa/en-us/DataAndStatistics/NationalRecord/StationCapacities/Pages/Home.aspx", "rank": 9 }, "geometry": { "type": "Point", "coordinates": [ 47.013, 24.41 ] } },
{ "type": "Feature", "id": 102, "properties": { "primary_fuel": "Gas", "name": "Shin Nagoya", "capacity_mw": 3058.0, "year_of_capacity_data": null, "owner": "Chubu", "source": "Japanese Electric Power Information Center", "url": "https://www.jepic.or.jp/en/", "rank": 21 }, "geometry": { "type": "Point", "coordinates": [ 136.8767, 35.0645 ] } },
{ "type": "Feature", "id": 103, "properties": { "primary_fuel": "Gas", "name": "Incheon", "capacity_mw": 3052.0, "year_of_capacity_data": null, "owner": "Korea Midland Power (KOMIPO)", "source": "POSCO", "url": "http://eng.poscoenergy.com/eng/renew/_service/business/generator/incheon_power01.asp", "rank": 22 }, "geometry": { "type": "Point", "coordinates": [ 126.6078, 37.5111 ] } },
{ "type": "Feature", "id": 104, "properties": { "primary_fuel": "Coal", "name": "Tianjin Beijiang power station", "capacity_mw": 3000.0, "year_of_capacity_data": null, "owner": "SDIC Huajing Power Holdings Co Ltd", "source": "GCPT", "url": "https://endcoal.org/global-coal-plant-tracker/", "rank": 73 }, "geometry": { "type": "Point", "coordinates": [ 117.9293, 39.2193 ] } },
{ "type": "Feature", "id": 105, "properties": { "primary_fuel": "Coal", "name": "RIHAND", "capacity_mw": 3000.0, "year_of_capacity_data": 2019, "owner": "", "source": "Central Electricity Authority", "url": "http://www.cea.nic.in/", "rank": 74 }, "geometry": { "type": "Point", "coordinates": [ 82.7915, 24.027 ] } },
{ "type": "Feature", "id": 106, "properties": { "primary_fuel": "Coal", "name": "TALCHER STPS", "capacity_mw": 3000.0, "year_of_capacity_data": 2019, "owner": "", "source": "Central Electricity Authority", "url": "http://www.cea.nic.in/", "rank": 75 }, "geometry": { "type": "Point", "coordinates": [ 85.074, 21.0966 ] } },
{ "type": "Feature", "id": 107, "properties": { "primary_fuel": "Coal", "name": "Kriel power station", "capacity_mw": 3000.0, "year_of_capacity_data": null, "owner": "Eskom", "source": "GCPT", "url": "https://endcoal.org/global-coal-plant-tracker/", "rank": 76 }, "geometry": { "type": "Point", "coordinates": [ 29.1801, -26.254 ] } },
{ "type": "Feature", "id": 108, "properties": { "primary_fuel": "Oil", "name": "Ulsan", "capacity_mw": 3000.0, "year_of_capacity_data": null, "owner": "Korea East West Power", "source": "KEWP", "url": "http://www.ewp.co.kr/eng/main/main.asp", "rank": 10 }, "geometry": { "type": "Point", "coordinates": [ 129.3812, 35.4754 ] } },
{ "type": "Feature", "id": 109, "properties": { "primary_fuel": "Gas", "name": "Syrdarya", "capacity_mw": 3000.0, "year_of_capacity_data": null, "owner": "Uzbekenergo", "source": "Asian Development Bank", "url": "http://www.carecprogram.org/ru/uploads/docs/Projects/TA/TA4029-UZB-Volume-1-Sections-I-III.pdf", "rank": 23 }, "geometry": { "type": "Point", "coordinates": [ 69.1005, 40.2287 ] } },
{ "type": "Feature", "id": 110, "properties": { "primary_fuel": "Coal", "name": "Jianbi power station", "capacity_mw": 2990.0, "year_of_capacity_data": null, "owner": "China Guodian Group Corporation", "source": "GCPT", "url": "https://endcoal.org/global-coal-plant-tracker/", "rank": 77 }, "geometry": { "type": "Point", "coordinates": [ 119.5755, 32.1779 ] } },
{ "type": "Feature", "id": 111, "properties": { "primary_fuel": "Coal", "name": "SIPAT STPS", "capacity_mw": 2980.0, "year_of_capacity_data": 2019, "owner": "", "source": "Central Electricity Authority", "url": "http://www.cea.nic.in/", "rank": 78 }, "geometry": { "type": "Point", "coordinates": [ 82.293, 22.13 ] } },
{ "type": "Feature", "id": 112, "properties": { "primary_fuel": "Oil", "name": "Manatee", "capacity_mw": 2951.2, "year_of_capacity_data": 2019, "owner": "Florida Power & Light Co", "source": "U.S. Energy Information Administration", "url": "http://www.eia.gov/electricity/data/browser/", "rank": 11 }, "geometry": { "type": "Point", "coordinates": [ -82.3456, 27.6058 ] } },
{ "type": "Feature", "id": 113, "properties": { "primary_fuel": "Gas", "name": "MARAFIQ IWPP (1)", "capacity_mw": 2941.3, "year_of_capacity_data": null, "owner": "Jubail Water and Power Company", "source": "ECRA", "url": "http://www.ecra.gov.sa/en-us/DataAndStatistics/NationalRecord/StationCapacities/Pages/Home.aspx", "rank": 24 }, "geometry": { "type": "Point", "coordinates": [ 49.769, 26.9 ] } },
{ "type": "Feature", "id": 114, "properties": { "primary_fuel": "Coal", "name": "John E Amos", "capacity_mw": 2932.6, "year_of_capacity_data": 2019, "owner": "Appalachian Power Co", "source": "U.S. Energy Information Administration", "url": "http://www.eia.gov/electricity/data/browser/", "rank": 79 }, "geometry": { "type": "Point", "coordinates": [ -81.8233, 38.4731 ] } },
{ "type": "Feature", "id": 115, "properties": { "primary_fuel": "Coal", "name": "CHANDRAPUR_Coal", "capacity_mw": 2920.0, "year_of_capacity_data": 2019, "owner": "", "source": "Central Electricity Authority", "url": "http://www.cea.nic.in/", "rank": 80 }, "geometry": { "type": "Point", "coordinates": [ 79.29, 20.0063 ] } },
{ "type": "Feature", "id": 116, "properties": { "primary_fuel": "Coal", "name": "Datang Sanmenxia power station", "capacity_mw": 2900.0, "year_of_capacity_data": null, "owner": "Datang Sanmenxia Power Station", "source": "GCPT", "url": "https://endcoal.org/global-coal-plant-tracker/", "rank": 81 }, "geometry": { "type": "Point", "coordinates": [ 111.0274, 34.6847 ] } },
{ "type": "Feature", "id": 117, "properties": { "primary_fuel": "Oil", "name": "JEDDAH SOUTH", "capacity_mw": 2892.0, "year_of_capacity_data": null, "owner": "Saudi Electricity Company (SEC)", "source": "ECRA", "url": "http://www.ecra.gov.sa/en-us/DataAndStatistics/NationalRecord/StationCapacities/Pages/Home.aspx", "rank": 12 }, "geometry": { "type": "Point", "coordinates": [ 39.177, 21.21 ] } },
{ "type": "Feature", "id": 118, "properties": { "primary_fuel": "Gas", "name": "Chiba", "capacity_mw": 2880.0, "year_of_capacity_data": null, "owner": "Tokyo", "source": "Japanese Electric Power Information Center", "url": "https://www.jepic.or.jp/en/", "rank": 25 }, "geometry": { "type": "Point", "coordinates": [ 140.1053, 35.5648 ] } },
{ "type": "Feature", "id": 119, "properties": { "primary_fuel": "Gas", "name": "Jack McDonough", "capacity_mw": 2848.4, "year_of_capacity_data": 2019, "owner": "Georgia Power Co", "source": "U.S. Energy Information Administration", "url": "http://www.eia.gov/electricity/data/browser/", "rank": 26 }, "geometry": { "type": "Point", "coordinates": [ -84.4758, 33.8239 ] } },
{ "type": "Feature", "id": 120, "properties": { "primary_fuel": "Coal", "name": "Zaporizhia power station", "capacity_mw": 2825.0, "year_of_capacity_data": null, "owner": "DTEK", "source": "DTEK", "url": "http://www.dtek.com/library/file/dtek-report-eng-2015-web.PDF", "rank": 82 }, "geometry": { "type": "Point", "coordinates": [ 34.6253, 47.5089 ] } },
{ "type": "Feature", "id": 121, "properties": { "primary_fuel": "Coal", "name": "James H Miller Jr", "capacity_mw": 2822.0, "year_of_capacity_data": 2019, "owner": "Alabama Power Co", "source": "U.S. Energy Information Administration", "url": "http://www.eia.gov/electricity/data/browser/", "rank": 83 }, "geometry": { "type": "Point", "coordinates": [ -87.0597, 33.6319 ] } },
{ "type": "Feature", "id": 122, "properties": { "primary_fuel": "Gas", "name": "Senoko I-VII CCGT Power Plants Singapore", "capacity_mw": 2807.0, "year_of_capacity_data": 2017, "owner": "", "source": "GEODB", "url": "http://globalenergyobservatory.org", "rank": 27 }, "geometry": { "type": "Point", "coordinates": [ 103.7996, 1.4655 ] } },
{ "type": "Feature", "id": 123, "properties": { "primary_fuel": "Gas", "name": "Damavand C.C.", "capacity_mw": 2800.0, "year_of_capacity_data": null, "owner": "Moshanir", "source": "Moshanir", "url": "http://www.moshanir.co.ir/en/damavand.aspx", "rank": 28 }, "geometry": { "type": "Point", "coordinates": [ 51.851, 35.4156 ] } },
{ "type": "Feature", "id": 124, "properties": { "primary_fuel": "Oil", "name": "RABIGH-2", "capacity_mw": 2800.0, "year_of_capacity_data": null, "owner": "Saudi Electricity Company (SEC)", "source": "ECRA", "url": "http://www.ecra.gov.sa/en-us/DataAndStatistics/NationalRecord/StationCapacities/Pages/Home.aspx", "rank": 13 }, "geometry": { "type": "Point", "coordinates": [ 39.037, 22.67 ] } },
{ "type": "Feature", "id": 125, "properties": { "primary_fuel": "Coal", "name": "Afşin Elbistan Termik Santrali", "capacity_mw": 2795.0, "year_of_capacity_data": null, "owner": "EÜAŞ", "source": "Enerji Atlasi", "url": "http://www.enerjiatlasi.com/komur/afsin-elbistan-b-termik-santrali.html", "rank": 84 }, "geometry": { "type": "Point", "coordinates": [ 36.981, 38.3537 ] } },
{ "type": "Feature", "id": 126, "properties": { "primary_fuel": "Coal", "name": "Janschwalde power station", "capacity_mw": 2790.0, "year_of_capacity_data": null, "owner": "Vattenfall Europe AG", "source": "Open Power System Data", "url": "http://data.open-power-system-data.org/", "rank": 85 }, "geometry": { "type": "Point", "coordinates": [ 14.459, 51.8344 ] } },
{ "type": "Feature", "id": 127, "properties": { "primary_fuel": "Coal", "name": "Meizhou Wan power station", "capacity_mw": 2786.0, "year_of_capacity_data": null, "owner": "SDIC Huajing Power Holdings Co", "source": "GCPT", "url": "https://endcoal.org/global-coal-plant-tracker/", "rank": 86 }, "geometry": { "type": "Point", "coordinates": [ 119.0334, 25.1609 ] } },
{ "type": "Feature", "id": 128, "properties": { "primary_fuel": "Coal", "name": "Plutarco Elías Calles (Petacalco)", "capacity_mw": 2778.4, "year_of_capacity_data": 2016, "owner": "CFE", "source": "CFE-CENACE", "url": "http://base.energia.gob.mx/nacei/Archivos/3%20P%C3%A1gina%20Datos%20de%20Infraestructura/Ingl%C3%A9s/PowerPlantsAllGE100MW_NorthAmerica_201606.xlsx", "rank": 87 }, "geometry": { "type": "Point", "coordinates": [ -102.1154, 17.9837 ] } },
{ "type": "Feature", "id": 129, "properties": { "primary_fuel": "Gas", "name": "Kuriemat 2", "capacity_mw": 2754.0, "year_of_capacity_data": null, "owner": "", "source": "Egyptian Electricity Holding Company", "url": "http://www.moee.gov.eg/english_new/report.aspx", "rank": 29 }, "geometry": { "type": "Point", "coordinates": [ 31.224, 29.2693 ] } },
{ "type": "Feature", "id": 130, "properties": { "primary_fuel": "Gas", "name": "Ras Laffan C (Ras Qartas) CCGT Power Plant Qatar", "capacity_mw": 2730.0, "year_of_capacity_data": 2017, "owner": "", "source": "GEODB", "url": "http://globalenergyobservatory.org", "rank": 30 }, "geometry": { "type": "Point", "coordinates": [ 51.5235, 25.936 ] } },
{ "type": "Feature", "id": 131, "properties": { "primary_fuel": "Coal", "name": "Huaneng Fuzhou power station", "capacity_mw": 2720.0, "year_of_capacity_data": null, "owner": "China Huaneng Group Corporation (CHNG)", "source": "GCPT", "url": "https://endcoal.org/global-coal-plant-tracker/", "rank": 88 }, "geometry": { "type": "Point", "coordinates": [ 119.4816, 25.9909 ] } },
{ "type": "Feature", "id": 132, "properties": { "primary_fuel": "Coal", "name": "Henan Xinmi power station", "capacity_mw": 2700.0, "year_of_capacity_data": null, "owner": "Beijing Sanjili Energy Co Ltd", "source": "GCPT", "url": "https://endcoal.org/global-coal-plant-tracker/", "rank": 89 }, "geometry": { "type": "Point", "coordinates": [ 113.5986, 34.5 ] } },
{ "type": "Feature", "id": 133, "properties": { "primary_fuel": "Gas", "name": "Fort Myers", "capacity_mw": 2680.9, "year_of_capacity_data": 2019, "owner": "Florida Power & Light Co", "source": "U.S. Energy Information Administration", "url": "http://www.eia.gov/electricity/data/browser/", "rank": 31 }, "geometry": { "type": "Point", "coordinates": [ -81.7831, 26.6967 ] } },
{ "type": "Feature", "id": 134, "properties": { "primary_fuel": "Coal", "name": "Kozienice", "capacity_mw": 2673.0, "year_of_capacity_data": null, "owner": "Enea Wytwarzanie", "source": "ENTSOE", "url": "https://transparency.entsoe.eu/generation/r2/installedCapacityPerProductionUnit/show", "rank": 90 }, "geometry": { "type": "Point", "coordinates": [ 21.4647, 51.6658 ] } },
{ "type": "Feature", "id": 135, "properties": { "primary_fuel": "Coal", "name": "Huaneng Laiwu power station", "capacity_mw": 2660.0, "year_of_capacity_data": null, "owner": "Huaneng Shandong Power Co Ltd", "source": "GCPT", "url": "https://endcoal.org/global-coal-plant-tracker/", "rank": 91 }, "geometry": { "type": "Point", "coordinates": [ 117.685, 36.1339 ] } },
{ "type": "Feature", "id": 136, "properties": { "primary_fuel": "Coal", "name": "Xinhai power station", "capacity_mw": 2660.0, "year_of_capacity_data": null, "owner": "Jiangsu Xinhai Power Co Ltd", "source": "GCPT", "url": "https://endcoal.org/global-coal-plant-tracker/", "rank": 92 }, "geometry": { "type": "Point", "coordinates": [ 119.1275, 34.5782 ] } },
{ "type": "Feature", "id": 137, "properties": { "primary_fuel": "Coal", "name": "Huaneng Dezhou power station", "capacity_mw": 2650.0, "year_of_capacity_data": null, "owner": "Huaneng Shandong Power Co Ltd", "source": "GCPT", "url": "https://endcoal.org/global-coal-plant-tracker/", "rank": 93 }, "geometry": { "type": "Point", "coordinates": [ 116.2416, 37.4493 ] } },
{ "type": "Feature", "id": 138, "properties": { "primary_fuel": "Coal", "name": "Bayswater", "capacity_mw": 2640.0, "year_of_capacity_data": null, "owner": "Macquarie Generation", "source": "Australian Renewable Energy Mapping Infrastructure", "url": "https://www.nationalmap.gov.au/", "rank": 94 }, "geometry": { "type": "Point", "coordinates": [ 150.9491, -32.3953 ] } },
{ "type": "Feature", "id": 139, "properties": { "primary_fuel": "Coal", "name": "Huaneng Luohuang power station", "capacity_mw": 2640.0, "year_of_capacity_data": null, "owner": "China Huaneng Group Corporation (CHNG)", "source": "GCPT", "url": "https://endcoal.org/global-coal-plant-tracker/", "rank": 95 }, "geometry": { "type": "Point", "coordinates": [ 106.4339, 29.3467 ] } },
{ "type": "Feature", "id": 140, "properties": { "primary_fuel": "Coal", "name": "Lusigang power station", "capacity_mw": 2640.0, "year_of_capacity_data": null, "owner": "Datang International Power Generation Co Ltd", "source": "GCPT", "url": "https://endcoal.org/global-coal-plant-tracker/", "rank": 96 }, "geometry": { "type": "Point", "coordinates": [ 121.7267, 32.0577 ] } },
{ "type": "Feature", "id": 141, "properties": { "primary_fuel": "Coal", "name": "Shenhua Anqing power station", "capacity_mw": 2640.0, "year_of_capacity_data": null, "owner": "Shenhua Anqing Power Station", "source": "GCPT", "url": "https://endcoal.org/global-coal-plant-tracker/", "rank": 97 }, "geometry": { "type": "Point", "coordinates": [ 117.1717, 30.5411 ] } },
{ "type": "Feature", "id": 142, "properties": { "primary_fuel": "Coal", "name": "Shenhua Guoneng Hami power station", "capacity_mw": 2640.0, "year_of_capacity_data": null, "owner": "Shenhua Guoneng Energy Group", "source": "GCPT", "url": "https://endcoal.org/global-coal-plant-tracker/", "rank": 98 }, "geometry": { "type": "Point", "coordinates": [ 93.0092, 42.4112 ] } },
{ "type": "Feature", "id": 143, "properties": { "primary_fuel": "Coal", "name": "WEnergy Maanshan Power Station", "capacity_mw": 2640.0, "year_of_capacity_data": null, "owner": "Anhui Tongling Power Generation Co Ltd", "source": "GCPT", "url": "https://endcoal.org/global-coal-plant-tracker/", "rank": 99 }, "geometry": { "type": "Point", "coordinates": [ 118.4797, 31.7375 ] } },
{ "type": "Feature", "id": 144, "properties": { "primary_fuel": "Coal", "name": "Weiqiao Huji power station", "capacity_mw": 2640.0, "year_of_capacity_data": null, "owner": "Weiqiao Huimin New Material Co Ltd", "source": "GCPT", "url": "https://endcoal.org/global-coal-plant-tracker/", "rank": 100 }, "geometry": { "type": "Point", "coordinates": [ 117.7772, 37.3588 ] } },
{ "type": "Feature", "id": 145, "properties": { "primary_fuel": "Coal", "name": "Weiqiao Zouping-1 power station", "capacity_mw": 2640.0, "year_of_capacity_data": null, "owner": "Shandong Hongqiao Limited", "source": "GCPT", "url": "https://endcoal.org/global-coal-plant-tracker/", "rank": 101 }, "geometry": { "type": "Point", "coordinates": [ 117.7854, 36.9107 ] } },
{ "type": "Feature", "id": 146, "properties": { "primary_fuel": "Coal", "name": "Weiqiao Zouping-6 power station", "capacity_mw": 2640.0, "year_of_capacity_data": null, "owner": "Shandong Weiqiao Aluminum Power Co Ltd", "source": "GCPT", "url": "https://endcoal.org/global-coal-plant-tracker/", "rank": 102 }, "geometry": { "type": "Point", "coordinates": [ 117.7844, 36.8979 ] } },
{ "type": "Feature", "id": 147, "properties": { "primary_fuel": "Coal", "name": "Weiqiao Zouping-7 power station", "capacity_mw": 2640.0, "year_of_capacity_data": null, "owner": "Weiqiao Textile Limited", "source": "GCPT", "url": "https://endcoal.org/global-coal-plant-tracker/", "rank": 103 }, "geometry": { "type": "Point", "coordinates": [ 117.8613, 36.8972 ] } },
{ "type": "Feature", "id": 148, "properties": { "primary_fuel": "Coal", "name": "Brindisi Sud power station", "capacity_mw": 2640.0, "year_of_capacity_data": null, "owner": "Enel SpA", "source": "GCPT", "url": "https://endcoal.org/global-coal-plant-tracker/", "rank": 104 }, "geometry": { "type": "Point", "coordinates": [ 18.0318, 40.5632 ] } },
{ "type": "Feature", "id": 149, "properties": { "primary_fuel": "Oil", "name": "PORTO TOLLE", "capacity_mw": 2640.0, "year_of_capacity_data": null, "owner": "ENEL", "source": "Reuters", "url": "http://uk.reuters.com/article/enel-portotolle-conversion-idUKLDE7661B620110707", "rank": 14 }, "geometry": { "type": "Point", "coordinates": [ 12.4883, 44.9569 ] } },
{ "type": "Feature", "id": 150, "properties": { "primary_fuel": "Coal", "name": "ANPARA", "capacity_mw": 2630.0, "year_of_capacity_data": 2019, "owner": "", "source": "Central Electricity Authority", "url": "http://www.cea.nic.in/", "rank": 105 }, "geometry": { "type": "Point", "coordinates": [ 82.7891, 24.201 ] } },
{ "type": "Feature", "id": 151, "properties": { "primary_fuel": "Coal", "name": "Puqi Xianning power station", "capacity_mw": 2600.0, "year_of_capacity_data": null, "owner": "China Resources Power Holdings Co Ltd", "source": "GCPT", "url": "https://endcoal.org/global-coal-plant-tracker/", "rank": 106 }, "geometry": { "type": "Point", "coordinates": [ 113.8734, 29.6653 ] } },
{ "type": "Feature", "id": 152, "properties": { "primary_fuel": "Coal", "name": "Tongling Wanneng power station", "capacity_mw": 2600.0, "year_of_capacity_data": null, "owner": "Anhui Tongling Power Generation Co Ltd", "source": "GCPT", "url": "https://endcoal.org/global-coal-plant-tracker/", "rank": 107 }, "geometry": { "type": "Point", "coordinates": [ 117.7644, 30.8818 ] } },
{ "type": "Feature", "id": 153, "properties": { "primary_fuel": "Coal", "name": "KORBA STPS", "capacity_mw": 2600.0, "year_of_capacity_data": 2019, "owner": "", "source": "Central Electricity Authority", "url": "http://www.cea.nic.in/", "rank": 108 }, "geometry": { "type": "Point", "coordinates": [ 82.6858, 22.3881 ] } },
{ "type": "Feature", "id": 154, "properties": { "primary_fuel": "Coal", "name": "R_GUNDEM STPS", "capacity_mw": 2600.0, "year_of_capacity_data": 2019, "owner": "", "source": "Central Electricity Authority", "url": "http://www.cea.nic.in/", "rank": 109 }, "geometry": { "type": "Point", "coordinates": [ 79.456, 18.7572 ] } },
{ "type": "Feature", "id": 155, "properties": { "primary_fuel": "Coal", "name": "Cumberland (TN)", "capacity_mw": 2600.0, "year_of_capacity_data": 2019, "owner": "Tennessee Valley Authority", "source": "U.S. Energy Information Administration", "url": "http://www.eia.gov/electricity/data/browser/", "rank": 110 }, "geometry": { "type": "Point", "coordinates": [ -87.6539, 36.3903 ] } },
{ "type": "Feature", "id": 156, "properties": { "primary_fuel": "Coal", "name": "Gavin Power  LLC", "capacity_mw": 2600.0, "year_of_capacity_data": 2019, "owner": "Gavin Power  LLC", "source": "U.S. Energy Information Administration", "url": "http://www.eia.gov/electricity/data/browser/", "rank": 111 }, "geometry": { "type": "Point", "coordinates": [ -82.1158, 38.9347 ] } },
{ "type": "Feature", "id": 157, "properties": { "primary_fuel": "Coal", "name": "Rockport", "capacity_mw": 2600.0, "year_of_capacity_data": 2019, "owner": "Indiana Michigan Power Co", "source": "U.S. Energy Information Administration", "url": "http://www.eia.gov/electricity/data/browser/", "rank": 112 }, "geometry": { "type": "Point", "coordinates": [ -87.0372, 37.9256 ] } },
{ "type": "Feature", "id": 158, "properties": { "primary_fuel": "Gas", "name": "Kirishskaya GRES", "capacity_mw": 2595.0, "year_of_capacity_data": null, "owner": "PJSC \"\"OGK-2\"\"", "source": "EnergyBase (RUS)", "url": "https://energybase.ru/power-plant/Kirishskaya_TPP", "rank": 32 }, "geometry": { "type": "Point", "coordinates": [ 32.0503, 59.4892 ] } },
{ "type": "Feature", "id": 159, "properties": { "primary_fuel": "Coal", "name": "Trimble County", "capacity_mw": 2594.1, "year_of_capacity_data": 2019, "owner": "Louisville Gas & Electric Co", "source": "U.S. Energy Information Administration", "url": "http://www.eia.gov/electricity/data/browser/", "rank": 113 }, "geometry": { "type": "Point", "coordinates": [ -85.4117, 38.5847 ] } },
{ "type": "Feature", "id": 160, "properties": { "primary_fuel": "Coal", "name": "Orot Rabin", "capacity_mw": 2590.0, "year_of_capacity_data": null, "owner": "Israel Electric corporation", "source": "Israel Electric Corporation", "url": "https://www.iec.co.il/en/ir/documents/stat2010.pdf", "rank": 114 }, "geometry": { "type": "Point", "coordinates": [ 34.888, 32.47 ] } },
{ "type": "Feature", "id": 161, "properties": { "primary_fuel": "Coal", "name": "Boxberg power station", "capacity_mw": 2585.0, "year_of_capacity_data": null, "owner": "Vattenfall Europe AG", "source": "Open Power System Data", "url": "http://data.open-power-system-data.org/", "rank": 115 }, "geometry": { "type": "Point", "coordinates": [ 14.5619, 51.4163 ] } },
{ "type": "Feature", "id": 162, "properties": { "primary_fuel": "Coal", "name": "Fangchenggang Coal", "capacity_mw": 2580.0, "year_of_capacity_data": null, "owner": "CLP Guangxi Fangchenggang Power Company Limited", "source": "CLP Group", "url": "https://www.clp.com.cn/ouroperations/powergeneraton/coalfiredpowerplants/Pages/guangxifangchenggang.aspx?lang=en", "rank": 116 }, "geometry": { "type": "Point", "coordinates": [ 108.3947, 21.5918 ] } },
{ "type": "Feature", "id": 163, "properties": { "primary_fuel": "Coal", "name": "Huainan Tianji power station", "capacity_mw": 2580.0, "year_of_capacity_data": null, "owner": "Huaihu Coal Electricity Co Ltd", "source": "GCPT", "url": "https://endcoal.org/global-coal-plant-tracker/", "rank": 117 }, "geometry": { "type": "Point", "coordinates": [ 116.8134, 32.7456 ] } },
{ "type": "Feature", "id": 164, "properties": { "primary_fuel": "Coal", "name": "Pucheng power station", "capacity_mw": 2580.0, "year_of_capacity_data": null, "owner": "Shaanxi Huadian Pucheng Co Ltd", "source": "GCPT", "url": "https://endcoal.org/global-coal-plant-tracker/", "rank": 118 }, "geometry": { "type": "Point", "coordinates": [ 109.8, 34.9783 ] } },
{ "type": "Feature", "id": 165, "properties": { "primary_fuel": "Gas", "name": "Barry", "capacity_mw": 2569.5, "year_of_capacity_data": 2019, "owner": "Alabama Power Co", "source": "U.S. Energy Information Administration", "url": "http://www.eia.gov/electricity/data/browser/", "rank": 33 }, "geometry": { "type": "Point", "coordinates": [ -88.0103, 31.0069 ] } },
{ "type": "Feature", "id": 166, "properties": { "primary_fuel": "Coal", "name": "Zhangjiakou power station", "capacity_mw": 2560.0, "year_of_capacity_data": null, "owner": "Datang Zhangjiakou Power Station", "source": "GCPT", "url": "https://endcoal.org/global-coal-plant-tracker/", "rank": 119 }, "geometry": { "type": "Point", "coordinates": [ 114.9439, 40.6597 ] } },
{ "type": "Feature", "id": 167, "properties": { "primary_fuel": "Coal", "name": "Roxboro", "capacity_mw": 2558.2, "year_of_capacity_data": 2019, "owner": "Duke Energy Progress - (NC)", "source": "U.S. Energy Information Administration", "url": "http://www.eia.gov/electricity/data/browser/", "rank": 120 }, "geometry": { "type": "Point", "coordinates": [ -79.0731, 36.4833 ] } },
{ "type": "Feature", "id": 168, "properties": { "primary_fuel": "Gas", "name": "Chalk Point LLC", "capacity_mw": 2553.0, "year_of_capacity_data": 2019, "owner": "GenOn Chalk Point  LLC", "source": "U.S. Energy Information Administration", "url": "http://www.eia.gov/electricity/data/browser/", "rank": 34 }, "geometry": { "type": "Point", "coordinates": [ -76.6861, 38.5444 ] } },
{ "type": "Feature", "id": 169, "properties": { "primary_fuel": "Gas", "name": "Ravenswood", "capacity_mw": 2551.0000000000005, "year_of_capacity_data": 2019, "owner": "Helix Ravenswood  LLC", "source": "U.S. Energy Information Administration", "url": "http://www.eia.gov/electricity/data/browser/", "rank": 35 }, "geometry": { "type": "Point", "coordinates": [ -73.9461, 40.7592 ] } },
{ "type": "Feature", "id": 170, "properties": { "primary_fuel": "Gas", "name": "Doha West", "capacity_mw": 2543.0, "year_of_capacity_data": null, "owner": "", "source": "Arab Union of Electricity", "url": "http://www.auptde.org/NewsDetails.aspx?lang=en&NID=283", "rank": 36 }, "geometry": { "type": "Point", "coordinates": [ 47.7865, 29.3678 ] } },
{ "type": "Feature", "id": 171, "properties": { "primary_fuel": "Coal", "name": "Huaneng Shangan power station", "capacity_mw": 2540.0, "year_of_capacity_data": null, "owner": "China Huaneng Group Corporation (CHNG)", "source": "GCPT", "url": "https://endcoal.org/global-coal-plant-tracker/", "rank": 121 }, "geometry": { "type": "Point", "coordinates": [ 114.1966, 38.057 ] } },
{ "type": "Feature", "id": 172, "properties": { "primary_fuel": "Coal", "name": "Huaneng Yueyang power station", "capacity_mw": 2524.0, "year_of_capacity_data": null, "owner": "China Huaneng Group Corporation (CHNG)", "source": "GCPT", "url": "https://endcoal.org/global-coal-plant-tracker/", "rank": 122 }, "geometry": { "type": "Point", "coordinates": [ 113.1623, 29.4498 ] } },
{ "type": "Feature", "id": 173, "properties": { "primary_fuel": "Coal", "name": "Anhui Bengbu power station", "capacity_mw": 2520.0, "year_of_capacity_data": null, "owner": "Anhui Bengbu Power Station", "source": "GCPT", "url": "https://endcoal.org/global-coal-plant-tracker/", "rank": 123 }, "geometry": { "type": "Point", "coordinates": [ 117.115, 32.7845 ] } },
{ "type": "Feature", "id": 174, "properties": { "primary_fuel": "Coal", "name": "Daba power station", "capacity_mw": 2520.0, "year_of_capacity_data": null, "owner": "Daba Power Station", "source": "GCPT", "url": "https://endcoal.org/global-coal-plant-tracker/", "rank": 124 }, "geometry": { "type": "Point", "coordinates": [ 105.9258, 37.9897 ] } },
{ "type": "Feature", "id": 175, "properties": { "primary_fuel": "Coal", "name": "Datang Ningde power station", "capacity_mw": 2520.0, "year_of_capacity_data": null, "owner": "Datang Shandong Power Generation Co Ltd", "source": "GCPT", "url": "https://endcoal.org/global-coal-plant-tracker/", "rank": 125 }, "geometry": { "type": "Point", "coordinates": [ 119.7359, 26.7575 ] } },
{ "type": "Feature", "id": 176, "properties": { "primary_fuel": "Coal", "name": "Dingzhou power station", "capacity_mw": 2520.0, "year_of_capacity_data": null, "owner": "Shenhua Guohua Electric Power Corporation", "source": "GCPT", "url": "https://endcoal.org/global-coal-plant-tracker/", "rank": 126 }, "geometry": { "type": "Point", "coordinates": [ 114.8434, 38.5122 ] } },
{ "type": "Feature", "id": 177, "properties": { "primary_fuel": "Coal", "name": "Guodian Baoji-2 power station", "capacity_mw": 2520.0, "year_of_capacity_data": null, "owner": "China Guodian Group Corporation", "source": "GCPT", "url": "https://endcoal.org/global-coal-plant-tracker/", "rank": 127 }, "geometry": { "type": "Point", "coordinates": [ 107.2176, 34.498 ] } },
{ "type": "Feature", "id": 178, "properties": { "primary_fuel": "Coal", "name": "Huainan Fengtai power station", "capacity_mw": 2520.0, "year_of_capacity_data": null, "owner": "Huainan Huaizhe Coal & Power", "source": "GCPT", "url": "https://endcoal.org/global-coal-plant-tracker/", "rank": 128 }, "geometry": { "type": "Point", "coordinates": [ 116.6492, 32.7579 ] } },
{ "type": "Feature", "id": 179, "properties": { "primary_fuel": "Coal", "name": "Huaneng Pingliang power station", "capacity_mw": 2520.0, "year_of_capacity_data": null, "owner": "Huaneng Gansu Energy Development Co Ltd", "source": "GCPT", "url": "https://endcoal.org/global-coal-plant-tracker/", "rank": 129 }, "geometry": { "type": "Point", "coordinates": [ 106.7871, 35.5014 ] } },
{ "type": "Feature", "id": 180, "properties": { "primary_fuel": "Coal", "name": "Huanghua Cangzhou power station", "capacity_mw": 2520.0, "year_of_capacity_data": null, "owner": "Shenhua Guohua Electric Power Corporation", "source": "GCPT", "url": "https://endcoal.org/global-coal-plant-tracker/", "rank": 130 }, "geometry": { "type": "Point", "coordinates": [ 117.879, 38.3094 ] } },
{ "type": "Feature", "id": 181, "properties": { "primary_fuel": "Coal", "name": "Shanwei Honghaiwan power station", "capacity_mw": 2520.0, "year_of_capacity_data": null, "owner": "Guangdong Electric Power Development Co Ltd", "source": "GCPT", "url": "https://endcoal.org/global-coal-plant-tracker/", "rank": 131 }, "geometry": { "type": "Point", "coordinates": [ 115.5543, 22.7061 ] } },
{ "type": "Feature", "id": 182, "properties": { "primary_fuel": "Coal", "name": "Tieling power station", "capacity_mw": 2520.0, "year_of_capacity_data": null, "owner": "Jinshan Energy Stock Co Ltd", "source": "GCPT", "url": "https://endcoal.org/global-coal-plant-tracker/", "rank": 132 }, "geometry": { "type": "Point", "coordinates": [ 123.803, 42.345 ] } },
{ "type": "Feature", "id": 183, "properties": { "primary_fuel": "Coal", "name": "Tongmei Tashan power station", "capacity_mw": 2520.0, "year_of_capacity_data": null, "owner": "Zhangze Power", "source": "GCPT", "url": "https://endcoal.org/global-coal-plant-tracker/", "rank": 133 }, "geometry": { "type": "Point", "coordinates": [ 113.1887, 39.9792 ] } },
{ "type": "Feature", "id": 184, "properties": { "primary_fuel": "Coal", "name": "Yangxi Zhujiang power station", "capacity_mw": 2520.0, "year_of_capacity_data": null, "owner": "Guangdong Zhujiang Investment Co Ltd", "source": "GCPT", "url": "https://endcoal.org/global-coal-plant-tracker/", "rank": 134 }, "geometry": { "type": "Point", "coordinates": [ 111.6703, 21.5426 ] } },
{ "type": "Feature", "id": 185, "properties": { "primary_fuel": "Coal", "name": "Zheneng Wenzhou power station", "capacity_mw": 2520.0, "year_of_capacity_data": null, "owner": "Zhejiang Zheneng Electric Power Co Ltd", "source": "GCPT", "url": "https://endcoal.org/global-coal-plant-tracker/", "rank": 135 }, "geometry": { "type": "Point", "coordinates": [ 120.8356, 27.9963 ] } },
{ "type": "Feature", "id": 186, "properties": { "primary_fuel": "Coal", "name": "Zheneng Yueqing power station", "capacity_mw": 2520.0, "year_of_capacity_data": null, "owner": "Zhejiang Zheneng Electric Power Co Ltd", "source": "GCPT", "url": "https://endcoal.org/global-coal-plant-tracker/", "rank": 136 }, "geometry": { "type": "Point", "coordinates": [ 121.0889, 28.1704 ] } },
{ "type": "Feature", "id": 187, "properties": { "primary_fuel": "Coal", "name": "Shri Singaji MALWA TPP", "capacity_mw": 2520.0, "year_of_capacity_data": 2019, "owner": "", "source": "Central Electricity Authority", "url": "http://www.cea.nic.in/", "rank": 137 }, "geometry": { "type": "Point", "coordinates": [ 76.5317, 22.0971 ] } },
{ "type": "Feature", "id": 188, "properties": { "primary_fuel": "Coal", "name": "Moldavskaya GRES", "capacity_mw": 2520.0, "year_of_capacity_data": null, "owner": "", "source": "Energy Charter Secretariat", "url": "http://www.energycharter.org/fileadmin/DocumentsMedia/IDEER/IDEER-Moldova_2015_en.pdf", "rank": 138 }, "geometry": { "type": "Point", "coordinates": [ 29.9407, 46.6292 ] } },
{ "type": "Feature", "id": 189, "properties": { "primary_fuel": "Gas", "name": "Konakovskaya", "capacity_mw": 2520.0, "year_of_capacity_data": null, "owner": "PJSC \"\"Enel Russia\"\"", "source": "EnergyBase (RUS)", "url": "https://energybase.ru/power-plant/Konakovskaya_TPP", "rank": 37 }, "geometry": { "type": "Point", "coordinates": [ 36.7707, 56.741 ] } },
{ "type": "Feature", "id": 190, "properties": { "primary_fuel": "Gas", "name": "Black Point Power Station", "capacity_mw": 2500.0, "year_of_capacity_data": null, "owner": "Caste Peak Power Company Limited", "source": "CLP Group", "url": "https://www.clpgroup.com/en/our-business/assets-services", "rank": 38 }, "geometry": { "type": "Point", "coordinates": [ 113.91, 22.41 ] } },
{ "type": "Feature", "id": 191, "properties": { "primary_fuel": "Coal", "name": "CKI Lamma power station", "capacity_mw": 2500.0, "year_of_capacity_data": null, "owner": "Hongkong Electric Company (HKC)", "source": "GCPT", "url": "https://endcoal.org/global-coal-plant-tracker/", "rank": 139 }, "geometry": { "type": "Point", "coordinates": [ 114.1082, 22.2185 ] } },
{ "type": "Feature", "id": 192, "properties": { "primary_fuel": "Coal", "name": "Huainan Luohe power station", "capacity_mw": 2500.0, "year_of_capacity_data": null, "owner": "Datang International Power Generation", "source": "GCPT", "url": "https://endcoal.org/global-coal-plant-tracker/", "rank": 140 }, "geometry": { "type": "Point", "coordinates": [ 117.0753, 32.6837 ] } },
{ "type": "Feature", "id": 193, "properties": { "primary_fuel": "Gas", "name": "QURAYYAH -STEAM", "capacity_mw": 2500.0, "year_of_capacity_data": null, "owner": "Saudi Electricity Company (SEC)", "source": "ECRA", "url": "http://www.ecra.gov.sa/en-us/DataAndStatistics/NationalRecord/StationCapacities/Pages/Home.aspx", "rank": 39 }, "geometry": { "type": "Point", "coordinates": [ 50.118, 25.86 ] } },
{ "type": "Feature", "id": 194, "properties": { "primary_fuel": "Coal", "name": "Belews Creek", "capacity_mw": 2491.2, "year_of_capacity_data": 2019, "owner": "Duke Energy Carolinas  LLC", "source": "U.S. Energy Information Administration", "url": "http://www.eia.gov/electricity/data/browser/", "rank": 141 }, "geometry": { "type": "Point", "coordinates": [ -80.0603, 36.2811 ] } },
{ "type": "Feature", "id": 195, "properties": { "primary_fuel": "Coal", "name": "Sherburne County", "capacity_mw": 2469.3, "year_of_capacity_data": 2019, "owner": "Northern States Power Co - Minnesota", "source": "U.S. Energy Information Administration", "url": "http://www.eia.gov/electricity/data/browser/", "rank": 142 }, "geometry": { "type": "Point", "coordinates": [ -93.8931, 45.3808 ] } },
{ "type": "Feature", "id": 196, "properties": { "primary_fuel": "Coal", "name": "FirstEnergy W H Sammis", "capacity_mw": 2468.1, "year_of_capacity_data": 2019, "owner": "FirstEnergy Generation Corp", "source": "U.S. Energy Information Administration", "url": "http://www.eia.gov/electricity/data/browser/", "rank": 143 }, "geometry": { "type": "Point", "coordinates": [ -80.6319, 40.5317 ] } },
{ "type": "Feature", "id": 197, "properties": { "primary_fuel": "Gas", "name": "Eems", "capacity_mw": 2465.0, "year_of_capacity_data": null, "owner": "Electrabel", "source": "GDF Suez", "url": "https://www.google.com/url?sa=t&rct=j&q=&esrc=s&source=web&cd=3&ved=0ahUKEwilnu-T0aXOAhUBjz4KHT5VCjYQFggsMAI&url=http%3A%2F%2Fwww.engie.com%2Fwp-content%2Fuploads%2F2012%2F08%2FGDF_SUEZ_power_asset_table_vdef.xls&usg=AFQjCNHSG0cjbY0ZCS761mkpSWj0Z6E2zA&sig2=v45V3Rq0dF8CVwsH9bx9OQ&cad=rja", "rank": 40 }, "geometry": { "type": "Point", "coordinates": [ 6.856, 53.4441 ] } },
{ "type": "Feature", "id": 198, "properties": { "primary_fuel": "Gas", "name": "Lukoml Thermal Power Plant Belarus", "capacity_mw": 2460.0, "year_of_capacity_data": 2017, "owner": "", "source": "GEODB", "url": "http://globalenergyobservatory.org", "rank": 41 }, "geometry": { "type": "Point", "coordinates": [ 29.1341, 54.6803 ] } },
{ "type": "Feature", "id": 199, "properties": { "primary_fuel": "Coal", "name": "Xishan Gujiao power station", "capacity_mw": 2460.0, "year_of_capacity_data": null, "owner": "Xishan Coal and Eletricity Power Co Ltd", "source": "GCPT", "url": "https://endcoal.org/global-coal-plant-tracker/", "rank": 144 }, "geometry": { "type": "Point", "coordinates": [ 112.0886, 37.8915 ] } },
{ "type": "Feature", "id": 200, "properties": { "primary_fuel": "Coal", "name": "Yangzhou-2 power station", "capacity_mw": 2460.0, "year_of_capacity_data": null, "owner": "Jiangsu Huadian Yangzhou Power", "source": "GCPT", "url": "https://endcoal.org/global-coal-plant-tracker/", "rank": 145 }, "geometry": { "type": "Point", "coordinates": [ 119.4193, 32.2684 ] } },
{ "type": "Feature", "id": 201, "properties": { "primary_fuel": "Coal", "name": "Aksu power station", "capacity_mw": 2450.0, "year_of_capacity_data": null, "owner": "Eurasian Energy Corp", "source": "Kazakhmys", "url": "http://kazakhmys.kz/en/map/", "rank": 146 }, "geometry": { "type": "Point", "coordinates": [ 76.875, 52.12 ] } },
{ "type": "Feature", "id": 202, "properties": { "primary_fuel": "Gas", "name": "Martin", "capacity_mw": 2448.5, "year_of_capacity_data": 2019, "owner": "Florida Power & Light Co", "source": "U.S. Energy Information Administration", "url": "http://www.eia.gov/electricity/data/browser/", "rank": 42 }, "geometry": { "type": "Point", "coordinates": [ -80.5628, 27.0536 ] } },
{ "type": "Feature", "id": 203, "properties": { "primary_fuel": "Gas", "name": "Iriklinskaya", "capacity_mw": 2444.0, "year_of_capacity_data": null, "owner": "JSC INTER RAO-Electric Power Generation", "source": "EnergyBase (RUS)", "url": "https://energybase.ru/power-plant/Iriklinskaya_TPP", "rank": 43 }, "geometry": { "type": "Point", "coordinates": [ 58.8033, 51.754 ] } },
{ "type": "Feature", "id": 204, "properties": { "primary_fuel": "Coal", "name": "Jim Bridger", "capacity_mw": 2441.9, "year_of_capacity_data": 2019, "owner": "PacifiCorp", "source": "U.S. Energy Information Administration", "url": "http://www.eia.gov/electricity/data/browser/", "rank": 147 }, "geometry": { "type": "Point", "coordinates": [ -108.7875, 41.7378 ] } },
{ "type": "Feature", "id": 205, "properties": { "primary_fuel": "Gas", "name": "Nine Mile Point", "capacity_mw": 2439.7, "year_of_capacity_data": 2019, "owner": "Entergy Louisiana LLC", "source": "U.S. Energy Information Administration", "url": "http://www.eia.gov/electricity/data/browser/", "rank": 44 }, "geometry": { "type": "Point", "coordinates": [ -90.1458, 29.9472 ] } },
{ "type": "Feature", "id": 206, "properties": { "primary_fuel": "Coal", "name": "Daihai power station", "capacity_mw": 2430.0, "year_of_capacity_data": null, "owner": "Beijing Energy Investment Holding Co Ltd", "source": "GCPT", "url": "https://endcoal.org/global-coal-plant-tracker/", "rank": 148 }, "geometry": { "type": "Point", "coordinates": [ 112.6674, 40.5204 ] } },
{ "type": "Feature", "id": 207, "properties": { "primary_fuel": "Gas", "name": "APC UAN", "capacity_mw": 2430.0, "year_of_capacity_data": null, "owner": "Arabian power Company  ADWEA  IPR  TEPCO  and Mitsui", "source": "Arab Union of Electricity", "url": "http://www.auptde.org/NewsDetails.aspx?lang=en&NID=283", "rank": 45 }, "geometry": { "type": "Point", "coordinates": [ 54.491, 24.4375 ] } },
{ "type": "Feature", "id": 208, "properties": { "primary_fuel": "Gas", "name": "Union Power Station", "capacity_mw": 2428.0, "year_of_capacity_data": 2019, "owner": "Entergy Arkansas LLC", "source": "U.S. Energy Information Administration", "url": "http://www.eia.gov/electricity/data/browser/", "rank": 46 }, "geometry": { "type": "Point", "coordinates": [ -92.5894, 33.2961 ] } },
{ "type": "Feature", "id": 209, "properties": { "primary_fuel": "Coal", "name": "Zmiivska power station", "capacity_mw": 2425.0, "year_of_capacity_data": null, "owner": "Centrenergo", "source": "GCPT", "url": "https://endcoal.org/global-coal-plant-tracker/", "rank": 149 }, "geometry": { "type": "Point", "coordinates": [ 36.5236, 49.5853 ] } },
{ "type": "Feature", "id": 210, "properties": { "primary_fuel": "Gas", "name": "Kapar Energy Ventures (KEV)", "capacity_mw": 2420.0, "year_of_capacity_data": null, "owner": "", "source": "Penisular Malaysia Electricity Supply Company", "url": "http://www.st.gov.my/index.php/component/k2/item/606-peninsular-malaysia-electricity-supply-industry-outlook-2014.html", "rank": 47 }, "geometry": { "type": "Point", "coordinates": [ 101.3217, 3.1167 ] } },
{ "type": "Feature", "id": 211, "properties": { "primary_fuel": "Gas", "name": "Stavropolskaya GRES", "capacity_mw": 2415.0, "year_of_capacity_data": null, "owner": "PJSC \"\"OGK-2\"\"", "source": "EnergyBase (RUS)", "url": "https://energybase.ru/power-plant/Stavropolskaya_TPP", "rank": 48 }, "geometry": { "type": "Point", "coordinates": [ 41.5111, 45.3122 ] } },
{ "type": "Feature", "id": 212, "properties": { "primary_fuel": "Gas", "name": "Hsinta (gas)", "capacity_mw": 2410.0, "year_of_capacity_data": null, "owner": "", "source": "Bureau of Ministry  Energy  and Economic Affairs", "url": "https://web3.moeaboe.gov.tw/ECW/english/content/SubMenu.aspx?menu_id=1537", "rank": 49 }, "geometry": { "type": "Point", "coordinates": [ 120.1991, 22.8519 ] } },
{ "type": "Feature", "id": 213, "properties": { "primary_fuel": "Oil", "name": "Azerbaijan TPP", "capacity_mw": 2400.0, "year_of_capacity_data": null, "owner": "AzerEnerji", "source": "AzerEnerji", "url": "http://www.azerenerji.gov.az/index.php?option=com_content&view=article&id=91&Itemid=112&lang=az", "rank": 15 }, "geometry": { "type": "Point", "coordinates": [ 46.9901, 40.78 ] } },
{ "type": "Feature", "id": 214, "properties": { "primary_fuel": "Coal", "name": "Datang Wushashan power station", "capacity_mw": 2400.0, "year_of_capacity_data": null, "owner": "Datang International Xinyu Power Generation", "source": "GCPT", "url": "https://endcoal.org/global-coal-plant-tracker/", "rank": 150 }, "geometry": { "type": "Point", "coordinates": [ 121.6627, 29.505 ] } },
{ "type": "Feature", "id": 215, "properties": { "primary_fuel": "Coal", "name": "Diandong power station", "capacity_mw": 2400.0, "year_of_capacity_data": null, "owner": "China Huaneng Group Corporation (CHNG)", "source": "GCPT", "url": "https://endcoal.org/global-coal-plant-tracker/", "rank": 151 }, "geometry": { "type": "Point", "coordinates": [ 104.6826, 25.1995 ] } },
{ "type": "Feature", "id": 216, "properties": { "primary_fuel": "Coal", "name": "Fuzhou Kemen power station", "capacity_mw": 2400.0, "year_of_capacity_data": null, "owner": "Huadian Fuxin Energy Co Ltd", "source": "GCPT", "url": "https://endcoal.org/global-coal-plant-tracker/", "rank": 152 }, "geometry": { "type": "Point", "coordinates": [ 119.7621, 26.3736 ] } },
{ "type": "Feature", "id": 217, "properties": { "primary_fuel": "Coal", "name": "Guangan power station", "capacity_mw": 2400.0, "year_of_capacity_data": null, "owner": "China Huadian Group Corporation", "source": "GCPT", "url": "https://endcoal.org/global-coal-plant-tracker/", "rank": 153 }, "geometry": { "type": "Point", "coordinates": [ 106.8256, 30.5288 ] } },
{ "type": "Feature", "id": 218, "properties": { "primary_fuel": "Coal", "name": "Guizhou Faer power station", "capacity_mw": 2400.0, "year_of_capacity_data": null, "owner": "Guangdong Yudean Group Company Limited", "source": "GCPT", "url": "https://endcoal.org/global-coal-plant-tracker/", "rank": 154 }, "geometry": { "type": "Point", "coordinates": [ 104.7706, 26.3251 ] } },
{ "type": "Feature", "id": 219, "properties": { "primary_fuel": "Coal", "name": "Hancheng power station", "capacity_mw": 2400.0, "year_of_capacity_data": null, "owner": "Datang Shaanxi Power Generation Co Ltd", "source": "GCPT", "url": "https://endcoal.org/global-coal-plant-tracker/", "rank": 155 }, "geometry": { "type": "Point", "coordinates": [ 110.5557, 35.6002 ] } },
{ "type": "Feature", "id": 220, "properties": { "primary_fuel": "Coal", "name": "Huaneng Yangluo power station", "capacity_mw": 2400.0, "year_of_capacity_data": null, "owner": "China Huaneng Group Corporation (CHNG)", "source": "GCPT", "url": "https://endcoal.org/global-coal-plant-tracker/", "rank": 156 }, "geometry": { "type": "Point", "coordinates": [ 114.5437, 30.6931 ] } },
{ "type": "Feature", "id": 221, "properties": { "primary_fuel": "Coal", "name": "Lanxi power station", "capacity_mw": 2400.0, "year_of_capacity_data": null, "owner": "Zhejiang Zheneng Electric Power Co Ltd", "source": "GCPT", "url": "https://endcoal.org/global-coal-plant-tracker/", "rank": 157 }, "geometry": { "type": "Point", "coordinates": [ 119.5068, 29.1861 ] } },
{ "type": "Feature", "id": 222, "properties": { "primary_fuel": "Coal", "name": "Panxian-2 power station", "capacity_mw": 2400.0, "year_of_capacity_data": null, "owner": "Guangdong Yudean Group Company Limited", "source": "GCPT", "url": "https://endcoal.org/global-coal-plant-tracker/", "rank": 158 }, "geometry": { "type": "Point", "coordinates": [ 104.5924, 25.4692 ] } },
{ "type": "Feature", "id": 223, "properties": { "primary_fuel": "Coal", "name": "Shenhua Guohua Jinjie power station", "capacity_mw": 2400.0, "year_of_capacity_data": null, "owner": "Shenhua Guoneng Energy Group", "source": "GCPT", "url": "https://endcoal.org/global-coal-plant-tracker/", "rank": 159 }, "geometry": { "type": "Point", "coordinates": [ 110.1661, 38.7365 ] } },
{ "type": "Feature", "id": 224, "properties": { "primary_fuel": "Coal", "name": "Shenhua Hequ power station", "capacity_mw": 2400.0, "year_of_capacity_data": null, "owner": "Shenhua Guoneng Energy Group", "source": "GCPT", "url": "https://endcoal.org/global-coal-plant-tracker/", "rank": 160 }, "geometry": { "type": "Point", "coordinates": [ 111.1852, 39.3829 ] } },
{ "type": "Feature", "id": 225, "properties": { "primary_fuel": "Coal", "name": "Xiangfan power station", "capacity_mw": 2400.0, "year_of_capacity_data": null, "owner": "China Huadian Group Corporation", "source": "GCPT", "url": "https://endcoal.org/global-coal-plant-tracker/", "rank": 161 }, "geometry": { "type": "Point", "coordinates": [ 112.1662, 31.9122 ] } },
{ "type": "Feature", "id": 226, "properties": { "primary_fuel": "Coal", "name": "Xibaipo power station", "capacity_mw": 2400.0, "year_of_capacity_data": null, "owner": "Hebei Construction Energy Investment Co Ltd", "source": "GCPT", "url": "https://endcoal.org/global-coal-plant-tracker/", "rank": 162 }, "geometry": { "type": "Point", "coordinates": [ 114.2149, 38.2451 ] } },
{ "type": "Feature", "id": 227, "properties": { "primary_fuel": "Coal", "name": "KORADI", "capacity_mw": 2400.0, "year_of_capacity_data": 2019, "owner": "", "source": "Central Electricity Authority", "url": "http://www.cea.nic.in/", "rank": 163 }, "geometry": { "type": "Point", "coordinates": [ 79.096, 21.2414 ] } },
{ "type": "Feature", "id": 228, "properties": { "primary_fuel": "Coal", "name": "KUDGI", "capacity_mw": 2400.0, "year_of_capacity_data": 2019, "owner": "", "source": "Central Electricity Authority", "url": "http://www.cea.nic.in/", "rank": 164 }, "geometry": { "type": "Point", "coordinates": [ 75.8349, 16.4994 ] } },
{ "type": "Feature", "id": 229, "properties": { "primary_fuel": "Coal", "name": "TAMNAR TPP", "capacity_mw": 2400.0, "year_of_capacity_data": 2019, "owner": "", "source": "Central Electricity Authority", "url": "http://www.cea.nic.in/", "rank": 165 }, "geometry": { "type": "Point", "coordinates": [ 83.4513, 22.0987 ] } },
{ "type": "Feature", "id": 230, "properties": { "primary_fuel": "Coal", "name": "Berezovskaya GRES", "capacity_mw": 2400.0, "year_of_capacity_data": null, "owner": "PJSC \"\"Unipro\"\"", "source": "EnergyBase (RUS)", "url": "https://energybase.ru/power-plant/Berezovskaya_TPP-1", "rank": 166 }, "geometry": { "type": "Point", "coordinates": [ 89.0725, 55.5794 ] } },
{ "type": "Feature", "id": 231, "properties": { "primary_fuel": "Coal", "name": "Mae Mah", "capacity_mw": 2400.0, "year_of_capacity_data": null, "owner": "Electric Generating Authority of Thailand", "source": "EGAT", "url": "http://www.egat.co.th/en/index.php?option=com_content&view=article&id=92&Itemid=117", "rank": 167 }, "geometry": { "type": "Point", "coordinates": [ 99.7499, 18.2963 ] } },
{ "type": "Feature", "id": 232, "properties": { "primary_fuel": "Coal", "name": "Cross", "capacity_mw": 2390.1, "year_of_capacity_data": 2019, "owner": "South Carolina Public Service Authority", "source": "U.S. Energy Information Administration", "url": "http://www.eia.gov/electricity/data/browser/", "rank": 168 }, "geometry": { "type": "Point", "coordinates": [ -80.1132, 33.3715 ] } },
{ "type": "Feature", "id": 233, "properties": { "primary_fuel": "Coal", "name": "Labadie", "capacity_mw": 2389.4, "year_of_capacity_data": 2019, "owner": "Union Electric Co - (MO)", "source": "U.S. Energy Information Administration", "url": "http://www.eia.gov/electricity/data/browser/", "rank": 169 }, "geometry": { "type": "Point", "coordinates": [ -90.8377, 38.5622 ] } },
{ "type": "Feature", "id": 234, "properties": { "primary_fuel": "Coal", "name": "Huolinhe Zhanute power station", "capacity_mw": 2380.0, "year_of_capacity_data": null, "owner": "Hangzhou Jinjiang Group", "source": "GCPT", "url": "https://endcoal.org/global-coal-plant-tracker/", "rank": 170 }, "geometry": { "type": "Point", "coordinates": [ 119.5971, 45.4098 ] } },
{ "type": "Feature", "id": 235, "properties": { "primary_fuel": "Coal", "name": "Martin Lake", "capacity_mw": 2379.6, "year_of_capacity_data": 2019, "owner": "Luminant Generation Company LLC", "source": "U.S. Energy Information Administration", "url": "http://www.eia.gov/electricity/data/browser/", "rank": 171 }, "geometry": { "type": "Point", "coordinates": [ -94.5706, 32.2606 ] } },
{ "type": "Feature", "id": 236, "properties": { "primary_fuel": "Gas", "name": "Sanford", "capacity_mw": 2377.8, "year_of_capacity_data": 2019, "owner": "Florida Power & Light Co", "source": "U.S. Energy Information Administration", "url": "http://www.eia.gov/electricity/data/browser/", "rank": 50 }, "geometry": { "type": "Point", "coordinates": [ -81.3256, 28.8419 ] } },
{ "type": "Feature", "id": 237, "properties": { "primary_fuel": "Gas", "name": "Mystic Generating Station", "capacity_mw": 2375.6, "year_of_capacity_data": 2019, "owner": "Constellation Mystic Power LLC", "source": "U.S. Energy Information Administration", "url": "http://www.eia.gov/electricity/data/browser/", "rank": 51 }, "geometry": { "type": "Point", "coordinates": [ -71.0675, 42.3908 ] } },
{ "type": "Feature", "id": 238, "properties": { "primary_fuel": "Coal", "name": "Colstrip", "capacity_mw": 2363.4, "year_of_capacity_data": 2019, "owner": "Talen Montana LLC", "source": "U.S. Energy Information Administration", "url": "http://www.eia.gov/electricity/data/browser/", "rank": 172 }, "geometry": { "type": "Point", "coordinates": [ -106.614, 45.8831 ] } },
{ "type": "Feature", "id": 239, "properties": { "primary_fuel": "Coal", "name": "Arnot power station", "capacity_mw": 2352.0, "year_of_capacity_data": null, "owner": "Eskom", "source": "GCPT", "url": "https://endcoal.org/global-coal-plant-tracker/", "rank": 173 }, "geometry": { "type": "Point", "coordinates": [ 29.7917, -25.9444 ] } },
{ "type": "Feature", "id": 240, "properties": { "primary_fuel": "Coal", "name": "KAHALGAON", "capacity_mw": 2340.0, "year_of_capacity_data": 2019, "owner": "", "source": "Central Electricity Authority", "url": "http://www.cea.nic.in/", "rank": 174 }, "geometry": { "type": "Point", "coordinates": [ 87.2635, 25.2349 ] } },
{ "type": "Feature", "id": 241, "properties": { "primary_fuel": "Coal", "name": "Burshtyn power station", "capacity_mw": 2334.0, "year_of_capacity_data": null, "owner": "DTEK", "source": "GCPT", "url": "https://endcoal.org/global-coal-plant-tracker/", "rank": 175 }, "geometry": { "type": "Point", "coordinates": [ 24.6665, 49.2104 ] } },
{ "type": "Feature", "id": 242, "properties": { "primary_fuel": "Coal", "name": "CHHABRA TPS", "capacity_mw": 2320.0, "year_of_capacity_data": 2019, "owner": "", "source": "Central Electricity Authority", "url": "http://www.cea.nic.in/", "rank": 176 }, "geometry": { "type": "Point", "coordinates": [ 77.0357, 24.6217 ] } },
{ "type": "Feature", "id": 243, "properties": { "primary_fuel": "Coal", "name": "MOUDA STPS", "capacity_mw": 2320.0, "year_of_capacity_data": 2019, "owner": "", "source": "Central Electricity Authority", "url": "http://www.cea.nic.in/", "rank": 177 }, "geometry": { "type": "Point", "coordinates": [ 79.3978, 21.1797 ] } },
{ "type": "Feature", "id": 244, "properties": { "primary_fuel": "Gas", "name": "Paradise", "capacity_mw": 2310.2, "year_of_capacity_data": 2019, "owner": "Tennessee Valley Authority", "source": "U.S. Energy Information Administration", "url": "http://www.eia.gov/electricity/data/browser/", "rank": 52 }, "geometry": { "type": "Point", "coordinates": [ -86.9783, 37.2608 ] } },
{ "type": "Feature", "id": 245, "properties": { "primary_fuel": "Gas", "name": "Shin Oita", "capacity_mw": 2295.0, "year_of_capacity_data": null, "owner": "Kyushu", "source": "Japanese Electric Power Information Center", "url": "https://www.jepic.or.jp/en/", "rank": 53 }, "geometry": { "type": "Point", "coordinates": [ 131.7076, 33.2672 ] } },
{ "type": "Feature", "id": 246, "properties": { "primary_fuel": "Gas", "name": "H L Culbreath Bayside Power Station", "capacity_mw": 2294.0000000000005, "year_of_capacity_data": 2019, "owner": "Tampa Electric Co", "source": "U.S. Energy Information Administration", "url": "http://www.eia.gov/electricity/data/browser/", "rank": 54 }, "geometry": { "type": "Point", "coordinates": [ -82.4231, 27.9072 ] } },
{ "type": "Feature", "id": 247, "properties": { "primary_fuel": "Oil", "name": "PORCHEVILLE", "capacity_mw": 2290.0, "year_of_capacity_data": null, "owner": "", "source": "RTE Transmission Operator", "url": "http://clients.rte-france.com/lang/an/visiteurs/vie/prod/parc_reference.jsp", "rank": 16 }, "geometry": { "type": "Point", "coordinates": [ 1.7588, 48.9692 ] } },
{ "type": "Feature", "id": 248, "properties": { "primary_fuel": "Oil", "name": "Yokosuka", "capacity_mw": 2274.0, "year_of_capacity_data": null, "owner": "Tokyo", "source": "Japanese Electric Power Information Center", "url": "https://www.jepic.or.jp/en/", "rank": 17 }, "geometry": { "type": "Point", "coordinates": [ 139.7173, 35.2148 ] } },
{ "type": "Feature", "id": 249, "properties": { "primary_fuel": "Coal", "name": "Panshan power station", "capacity_mw": 2260.0, "year_of_capacity_data": null, "owner": "Panshan Power Station", "source": "GCPT", "url": "https://endcoal.org/global-coal-plant-tracker/", "rank": 178 }, "geometry": { "type": "Point", "coordinates": [ 117.4628, 39.9793 ] } },
{ "type": "Feature", "id": 250, "properties": { "primary_fuel": "Gas", "name": "North Giza", "capacity_mw": 2250.0, "year_of_capacity_data": null, "owner": "", "source": "Egyptian Electricity Holding Company", "url": "http://www.moee.gov.eg/english_new/report.aspx", "rank": 55 }, "geometry": { "type": "Point", "coordinates": [ 30.9471, 30.2483 ] } },
{ "type": "Feature", "id": 251, "properties": { "primary_fuel": "Gas", "name": "Nubaria", "capacity_mw": 2250.0, "year_of_capacity_data": null, "owner": "", "source": "Egyptian Electricity Holding Company", "url": "http://www.moee.gov.eg/english_new/report.aspx", "rank": 56 }, "geometry": { "type": "Point", "coordinates": [ 30.6671, 30.6993 ] } },
{ "type": "Feature", "id": 252, "properties": { "primary_fuel": "Coal", "name": "Rutenberg", "capacity_mw": 2250.0, "year_of_capacity_data": null, "owner": "Israel Electric corporation", "source": "Israel Electric Corporation", "url": "https://www.iec.co.il/en/ir/documents/stat2010.pdf", "rank": 179 }, "geometry": { "type": "Point", "coordinates": [ 34.5216, 31.6299 ] } },
{ "type": "Feature", "id": 253, "properties": { "primary_fuel": "Oil", "name": "PowerSeraya Pulau Seraya Oil Power Station Singapore", "capacity_mw": 2250.0, "year_of_capacity_data": 2017, "owner": "", "source": "GEODB", "url": "http://globalenergyobservatory.org", "rank": 18 }, "geometry": { "type": "Point", "coordinates": [ 103.727, 1.28 ] } },
{ "type": "Feature", "id": 254, "properties": { "primary_fuel": "Gas", "name": "Sherwood H Smith Jr Energy Complex", "capacity_mw": 2244.8, "year_of_capacity_data": 2019, "owner": "Duke Energy Progress - (NC)", "source": "U.S. Energy Information Administration", "url": "http://www.eia.gov/electricity/data/browser/", "rank": 57 }, "geometry": { "type": "Point", "coordinates": [ -79.7406, 34.8392 ] } },
{ "type": "Feature", "id": 255, "properties": { "primary_fuel": "Gas", "name": "Abu Kir", "capacity_mw": 2236.0, "year_of_capacity_data": null, "owner": "", "source": "Egyptian Electricity Holding Company", "url": "http://www.moee.gov.eg/english_new/report.aspx", "rank": 58 }, "geometry": { "type": "Point", "coordinates": [ 30.1409, 31.2694 ] } },
{ "type": "Feature", "id": 256, "properties": { "primary_fuel": "Coal", "name": "Troitskaya GRES", "capacity_mw": 2234.0, "year_of_capacity_data": null, "owner": "PJSC \"\"OGK-2\"\"", "source": "EnergyBase (RUS)", "url": "https://energybase.ru/power-plant/Troitskaya_TPP", "rank": 180 }, "geometry": { "type": "Point", "coordinates": [ 61.6472, 54.0369 ] } },
{ "type": "Feature", "id": 257, "properties": { "primary_fuel": "Gas", "name": "Hines Energy Complex", "capacity_mw": 2234.0, "year_of_capacity_data": 2019, "owner": "Duke Energy Florida  LLC", "source": "U.S. Energy Information Administration", "url": "http://www.eia.gov/electricity/data/browser/", "rank": 59 }, "geometry": { "type": "Point", "coordinates": [ -81.87, 27.7882 ] } },
{ "type": "Feature", "id": 258, "properties": { "primary_fuel": "Gas", "name": "Tashkent", "capacity_mw": 2230.0, "year_of_capacity_data": null, "owner": "Uzbekenergo", "source": "Chibu Electric Provider", "url": "http://www.chuden.co.jp/english/corporate/press2004/0117_1.html", "rank": 60 }, "geometry": { "type": "Point", "coordinates": [ 69.3677, 41.3822 ] } },
{ "type": "Feature", "id": 259, "properties": { "primary_fuel": "Gas", "name": "Victor J Daniel Jr", "capacity_mw": 2229.0, "year_of_capacity_data": 2019, "owner": "Mississippi Power Co", "source": "U.S. Energy Information Administration", "url": "http://www.eia.gov/electricity/data/browser/", "rank": 61 }, "geometry": { "type": "Point", "coordinates": [ -88.5553, 30.5322 ] } },
{ "type": "Feature", "id": 260, "properties": { "primary_fuel": "Coal", "name": "Ghent", "capacity_mw": 2225.9, "year_of_capacity_data": 2019, "owner": "Kentucky Utilities Co", "source": "U.S. Energy Information Administration", "url": "http://www.eia.gov/electricity/data/browser/", "rank": 181 }, "geometry": { "type": "Point", "coordinates": [ -85.035, 38.7497 ] } },
{ "type": "Feature", "id": 261, "properties": { "primary_fuel": "Coal", "name": "Novocherkasskaya GRES", "capacity_mw": 2214.0, "year_of_capacity_data": null, "owner": "PJSC \"\"OGK-2\"\"", "source": "EnergyBase (RUS)", "url": "https://energybase.ru/power-plant/Novocherkasskaya_TPP", "rank": 182 }, "geometry": { "type": "Point", "coordinates": [ 40.2333, 47.4 ] } },
{ "type": "Feature", "id": 262, "properties": { "primary_fuel": "Gas", "name": "Alba Power Station", "capacity_mw": 2204.0, "year_of_capacity_data": null, "owner": "Aluminum Bahrain", "source": "Aluminum Bahrain", "url": "http://www.albasmelter.com/Range/OProducts/Pages/Power.aspx", "rank": 62 }, "geometry": { "type": "Point", "coordinates": [ 50.6008, 26.0945 ] } },
{ "type": "Feature", "id": 263, "properties": { "primary_fuel": "Coal", "name": "R M Schahfer", "capacity_mw": 2201.4, "year_of_capacity_data": 2019, "owner": "Northern Indiana Pub Serv Co", "source": "U.S. Energy Information Administration", "url": "http://www.eia.gov/electricity/data/browser/", "rank": 183 }, "geometry": { "type": "Point", "coordinates": [ -87.0261, 41.2164 ] } },
{ "type": "Feature", "id": 264, "properties": { "primary_fuel": "Coal", "name": "Liddell", "capacity_mw": 2200.0, "year_of_capacity_data": null, "owner": "Macquarie Generation", "source": "Australian Renewable Energy Mapping Infrastructure", "url": "https://www.nationalmap.gov.au/", "rank": 184 }, "geometry": { "type": "Point", "coordinates": [ 150.9776, -32.3713 ] } },
{ "type": "Feature", "id": 265, "properties": { "primary_fuel": "Gas", "name": "Zainskaya GRES", "capacity_mw": 2200.0, "year_of_capacity_data": null, "owner": "JSC \"\"Tatenergo\"\" (JSC \"\"Generation Company\"\")", "source": "EnergyBase (RUS)", "url": "https://energybase.ru/power-plant/Zainskaya_TPP", "rank": 63 }, "geometry": { "type": "Point", "coordinates": [ 52.0228, 55.2903 ] } },
{ "type": "Feature", "id": 266, "properties": { "primary_fuel": "Coal", "name": "Hsinta (coal)", "capacity_mw": 2200.0, "year_of_capacity_data": null, "owner": "", "source": "Bureau of Ministry  Energy  and Economic Affairs", "url": "https://web3.moeaboe.gov.tw/ECW/english/content/SubMenu.aspx?menu_id=1537", "rank": 185 }, "geometry": { "type": "Point", "coordinates": [ 120.1972, 22.8558 ] } },
{ "type": "Feature", "id": 267, "properties": { "primary_fuel": "Gas", "name": "TAPCO", "capacity_mw": 2200.0, "year_of_capacity_data": null, "owner": "ADWEA  TAQA  & CMS Generation Taweelah Limited", "source": "Arab Union of Electricity", "url": "http://www.auptde.org/NewsDetails.aspx?lang=en&NID=283", "rank": 64 }, "geometry": { "type": "Point", "coordinates": [ 54.6873, 24.768 ] } },
{ "type": "Feature", "id": 268, "properties": { "primary_fuel": "Coal", "name": "Loy Yang A", "capacity_mw": 2180.0, "year_of_capacity_data": null, "owner": "GEAC Great Energy Alliance Corporation", "source": "Australian Renewable Energy Mapping Infrastructure", "url": "https://www.nationalmap.gov.au/", "rank": 186 }, "geometry": { "type": "Point", "coordinates": [ 146.5746, -38.2536 ] } },
{ "type": "Feature", "id": 269, "properties": { "primary_fuel": "Gas", "name": "Pembroke", "capacity_mw": 2180.0, "year_of_capacity_data": null, "owner": "RWE Npower Plc", "source": "Department for Business Energy & Industrial Strategy", "url": "https://www.gov.uk/government/collections/digest-of-uk-energy-statistics-dukes", "rank": 65 }, "geometry": { "type": "Point", "coordinates": [ -4.99, 51.685 ] } },
{ "type": "Feature", "id": 270, "properties": { "primary_fuel": "Coal", "name": "Xinjiang Qiya Smelter power station", "capacity_mw": 2160.0, "year_of_capacity_data": null, "owner": "Xinjiang Qiya Aluminum & Power", "source": "GCPT", "url": "https://endcoal.org/global-coal-plant-tracker/", "rank": 187 },