{
"type": "FeatureCollection",
"name": "ghg",
"features": [
{ "type": "Feature", "id": 1, "properties": { "asset_id": 1670320, "year": 2021, "country": "United States", "original_inventory_sector": "electricity-generation", "asset_name": "Mill Creek (KY)", "asset_type": "coal", "emissions_quantity": 7594000.0 }, "geometry": { "type": "Point", "coordinates": [ -85.9103, 38.0525 ] } },
{ "type": "Feature", "id": 2, "properties": { "asset_id": 1670378, "year": 2021, "country": "India", "original_inventory_sector": "electricity-generation", "asset_name": "Khaperkheda power station", "asset_type": "coal", "emissions_quantity": 6259000.0 }, "geometry": { "type": "Point", "coordinates": [ 79.116, 21.2818 ] } },
{ "type": "Feature", "id": 3, "properties": { "asset_id": 1670107, "year": 2021, "country": "India", "original_inventory_sector": "electricity-generation", "asset_name": "Kahalgaon Super Thermal Power Plant", "asset_type": "coal", "emissions_quantity": 10931000.0 }, "geometry": { "type": "Point", "coordinates": [ 87.2656, 25.2369 ] } },
{ "type": "Feature", "id": 4, "properties": { "asset_id": 1670326, "year": 2021, "country": "United States", "original_inventory_sector": "electricity-generation", "asset_name": "Iatan", "asset_type": "coal", "emissions_quantity": 7924000.0 }, "geometry": { "type": "Point", "coordinates": [ -94.98, 39.4472 ] } },
{ "type": "Feature", "id": 5, "properties": { "asset_id": 1670322, "year": 2021, "country": "Bulgaria", "original_inventory_sector": "electricity-generation", "asset_name": "Brikel power station", "asset_type": "coal", "emissions_quantity": 5833000.0 }, "geometry": { "type": "Point", "coordinates": [ 25.9076, 42.1559 ] } },
{ "type": "Feature", "id": 6, "properties": { "asset_id": 1669949, "year": 2021, "country": "Indonesia", "original_inventory_sector": "electricity-generation", "asset_name": "Banten Suralaya power station", "asset_type": "coal", "emissions_quantity": 23374000.0 }, "geometry": { "type": "Point", "coordinates": [ 106.0336, -5.8892 ] } },
{ "type": "Feature", "id": 7, "properties": { "asset_id": 1670210, "year": 2021, "country": "United States", "original_inventory_sector": "electricity-generation", "asset_name": "Elm Road Generating Station", "asset_type": "coal", "emissions_quantity": 9532000.0 }, "geometry": { "type": "Point", "coordinates": [ -87.8315, 42.8475 ] } },
{ "type": "Feature", "id": 8, "properties": { "asset_id": 1669953, "year": 2021, "country": "Poland", "original_inventory_sector": "electricity-generation", "asset_name": "Kozienice power station", "asset_type": "coal", "emissions_quantity": 19641000.0 }, "geometry": { "type": "Point", "coordinates": [ 21.462, 51.667 ] } },
{ "type": "Feature", "id": 9, "properties": { "asset_id": 1670052, "year": 2021, "country": "United States", "original_inventory_sector": "electricity-generation", "asset_name": "Cumberland (TN)", "asset_type": "coal", "emissions_quantity": 10387000.0 }, "geometry": { "type": "Point", "coordinates": [ -87.6539, 36.3903 ] } },
{ "type": "Feature", "id": 10, "properties": { "asset_id": 11987432, "year": 2021, "country": "United States", "original_inventory_sector": "electricity-generation", "asset_name": "White Bluff", "asset_type": "coal", "emissions_quantity": 6891000.0 }, "geometry": { "type": "Point", "coordinates": [ -92.1406, 34.4228 ] } },
{ "type": "Feature", "id": 11, "properties": { "asset_id": 11987948, "year": 2021, "country": "Iraq", "original_inventory_sector": "electricity-generation", "asset_name": "Besmaya power station", "asset_type": "gas_or_oil", "emissions_quantity": 5495000.0 }, "geometry": { "type": "Point", "coordinates": [ 44.6573, 33.1634 ] } },
{ "type": "Feature", "id": 12, "properties": { "asset_id": 11987652, "year": 2021, "country": "Saudi Arabia", "original_inventory_sector": "electricity-generation", "asset_name": "Riyadh 8 power plant", "asset_type": "gas_or_oil", "emissions_quantity": 5741000.0 }, "geometry": { "type": "Point", "coordinates": [ 46.5718, 24.5946 ] } },
{ "type": "Feature", "id": 13, "properties": { "asset_id": 1670338, "year": 2021, "country": "United States", "original_inventory_sector": "electricity-generation", "asset_name": "Coal Creek", "asset_type": "coal", "emissions_quantity": 9039000.0 }, "geometry": { "type": "Point", "coordinates": [ -101.1571, 47.3777 ] } },
{ "type": "Feature", "id": 14, "properties": { "asset_id": 11987531, "year": 2021, "country": "Thailand", "original_inventory_sector": "electricity-generation", "asset_name": "Bang Pakong power station", "asset_type": "gas_or_oil", "emissions_quantity": 10749000.0 }, "geometry": { "type": "Point", "coordinates": [ 101.0253, 13.501 ] } },
{ "type": "Feature", "id": 15, "properties": { "asset_id": 11987443, "year": 2021, "country": "Canada", "original_inventory_sector": "electricity-generation", "asset_name": "Genesee power station", "asset_type": "coal", "emissions_quantity": 7530000.0 }, "geometry": { "type": "Point", "coordinates": [ -114.3048, 53.3433 ] } },
{ "type": "Feature", "id": 16, "properties": { "asset_id": 1670134, "year": 2021, "country": "India", "original_inventory_sector": "electricity-generation", "asset_name": "Farakka power station", "asset_type": "coal", "emissions_quantity": 9810000.0 }, "geometry": { "type": "Point", "coordinates": [ 87.8937, 24.7727 ] } },
{ "type": "Feature", "id": 17, "properties": { "asset_id": 1670234, "year": 2021, "country": "India", "original_inventory_sector": "electricity-generation", "asset_name": "Ib Valley power station", "asset_type": "coal", "emissions_quantity": 8128000.0 }, "geometry": { "type": "Point", "coordinates": [ 83.8602, 21.6898 ] } },
{ "type": "Feature", "id": 18, "properties": { "asset_id": 1670274, "year": 2021, "country": "Morocco", "original_inventory_sector": "electricity-generation", "asset_name": "Safi power station", "asset_type": "coal", "emissions_quantity": 6894000.0 }, "geometry": { "type": "Point", "coordinates": [ -9.2823, 32.1491 ] } },
{ "type": "Feature", "id": 19, "properties": { "asset_id": 1669986, "year": 2021, "country": "India", "original_inventory_sector": "electricity-generation", "asset_name": "Sasan Ultra Mega Power Project", "asset_type": "coal", "emissions_quantity": 18498000.0 }, "geometry": { "type": "Point", "coordinates": [ 82.6265, 23.9775 ] } },
{ "type": "Feature", "id": 20, "properties": { "asset_id": 1670295, "year": 2021, "country": "India", "original_inventory_sector": "electricity-generation", "asset_name": "Feroze Gandhi Unchahar Power Station", "asset_type": "coal", "emissions_quantity": 7240000.0 }, "geometry": { "type": "Point", "coordinates": [ 81.3239, 25.914 ] } },
{ "type": "Feature", "id": 21, "properties": { "asset_id": 1669961, "year": 2021, "country": "Saudi Arabia", "original_inventory_sector": "electricity-generation", "asset_name": "Ghazlan power plant", "asset_type": "gas", "emissions_quantity": 20809000.0 }, "geometry": { "type": "Point", "coordinates": [ 49.8976, 26.8541 ] } },
{ "type": "Feature", "id": 22, "properties": { "asset_id": 1670069, "year": 2021, "country": "India", "original_inventory_sector": "electricity-generation", "asset_name": "Korba Super Thermal Power Station", "asset_type": "coal", "emissions_quantity": 12145000.0 }, "geometry": { "type": "Point", "coordinates": [ 82.6858, 22.3881 ] } },
{ "type": "Feature", "id": 23, "properties": { "asset_id": 1670091, "year": 2021, "country": "India", "original_inventory_sector": "electricity-generation", "asset_name": "Kudgi Super Thermal Power Project", "asset_type": "coal", "emissions_quantity": 11242000.0 }, "geometry": { "type": "Point", "coordinates": [ 75.8346, 16.4995 ] } },
{ "type": "Feature", "id": 24, "properties": { "asset_id": 1670095, "year": 2021, "country": "Australia", "original_inventory_sector": "electricity-generation", "asset_name": "Liddell power station", "asset_type": "coal", "emissions_quantity": 9931000.0 }, "geometry": { "type": "Point", "coordinates": [ 150.9784, -32.3716 ] } },
{ "type": "Feature", "id": 25, "properties": { "asset_id": 1669942, "year": 2021, "country": "South Korea", "original_inventory_sector": "electricity-generation", "asset_name": "Dangjin power station", "asset_type": "coal", "emissions_quantity": 31020000.0 }, "geometry": { "type": "Point", "coordinates": [ 126.5122, 37.0551 ] } },
{ "type": "Feature", "id": 26, "properties": { "asset_id": 1670270, "year": 2021, "country": "United States", "original_inventory_sector": "electricity-generation", "asset_name": "Martin Lake", "asset_type": "coal", "emissions_quantity": 13386000.0 }, "geometry": { "type": "Point", "coordinates": [ -94.5706, 32.2606 ] } },
{ "type": "Feature", "id": 27, "properties": { "asset_id": 1670094, "year": 2021, "country": "Saudi Arabia", "original_inventory_sector": "electricity-generation", "asset_name": "Qurayyah CC power plant", "asset_type": "gas", "emissions_quantity": 10831000.0 }, "geometry": { "type": "Point", "coordinates": [ 50.1251, 25.8447 ] } },
{ "type": "Feature", "id": 28, "properties": { "asset_id": 1669941, "year": 2021, "country": "Taiwan", "original_inventory_sector": "electricity-generation", "asset_name": "Taichung power station", "asset_type": "coal", "emissions_quantity": 34190000.0 }, "geometry": { "type": "Point", "coordinates": [ 120.479, 24.215 ] } },
{ "type": "Feature", "id": 29, "properties": { "asset_id": 1670260, "year": 2021, "country": "United States", "original_inventory_sector": "electricity-generation", "asset_name": "Labadie", "asset_type": "coal", "emissions_quantity": 8618000.0 }, "geometry": { "type": "Point", "coordinates": [ -90.8377, 38.5622 ] } },
{ "type": "Feature", "id": 30, "properties": { "asset_id": 1670276, "year": 2021, "country": "India", "original_inventory_sector": "electricity-generation", "asset_name": "Lara Integrated Thermal Power Project", "asset_type": "coal", "emissions_quantity": 7474000.0 }, "geometry": { "type": "Point", "coordinates": [ 83.4575, 21.7577 ] } },
{ "type": "Feature", "id": 31, "properties": { "asset_id": 1670431, "year": 2021, "country": "Pakistan", "original_inventory_sector": "electricity-generation", "asset_name": "Thar Block II power station", "asset_type": "coal", "emissions_quantity": 6058000.0 }, "geometry": { "type": "Point", "coordinates": [ 70.3941, 24.8125 ] } },
{ "type": "Feature", "id": 32, "properties": { "asset_id": 1670006, "year": 2021, "country": "Turkey", "original_inventory_sector": "electricity-generation", "asset_name": "ZETES power station", "asset_type": "coal", "emissions_quantity": 15053000.0 }, "geometry": { "type": "Point", "coordinates": [ 31.8949, 41.5075 ] } },
{ "type": "Feature", "id": 33, "properties": { "asset_id": 1670379, "year": 2021, "country": "India", "original_inventory_sector": "electricity-generation", "asset_name": "Sanjay Gandhi power station", "asset_type": "coal", "emissions_quantity": 6259000.0 }, "geometry": { "type": "Point", "coordinates": [ 81.0648, 23.3057 ] } },
{ "type": "Feature", "id": 34, "properties": { "asset_id": 1670301, "year": 2021, "country": "Taiwan", "original_inventory_sector": "electricity-generation", "asset_name": "Tunghsiao power station", "asset_type": "gas", "emissions_quantity": 6928000.0 }, "geometry": { "type": "Point", "coordinates": [ 120.6735, 24.49 ] } },
{ "type": "Feature", "id": 35, "properties": { "asset_id": 1670253, "year": 2021, "country": "Turkey", "original_inventory_sector": "electricity-generation", "asset_name": "Cenal power station", "asset_type": "coal", "emissions_quantity": 7122000.0 }, "geometry": { "type": "Point", "coordinates": [ 27.3183, 40.4167 ] } },
{ "type": "Feature", "id": 36, "properties": { "asset_id": 1670257, "year": 2021, "country": "Saudi Arabia", "original_inventory_sector": "electricity-generation", "asset_name": "MARAFIQ Independent Water and power plant", "asset_type": "gas", "emissions_quantity": 7469000.0 }, "geometry": { "type": "Point", "coordinates": [ 49.6078, 27.0704 ] } },
{ "type": "Feature", "id": 37, "properties": { "asset_id": 1670034, "year": 2021, "country": "India", "original_inventory_sector": "electricity-generation", "asset_name": "Talcher Kaniha Super Thermal Power Station", "asset_type": "coal", "emissions_quantity": 14014000.0 }, "geometry": { "type": "Point", "coordinates": [ 85.075, 21.0971 ] } },
{ "type": "Feature", "id": 38, "properties": { "asset_id": 1670019, "year": 2021, "country": "India", "original_inventory_sector": "electricity-generation", "asset_name": "Tiroda Thermal Power Project", "asset_type": "coal", "emissions_quantity": 15415000.0 }, "geometry": { "type": "Point", "coordinates": [ 79.9673, 21.4125 ] } },
{ "type": "Feature", "id": 39, "properties": { "asset_id": 1670106, "year": 2021, "country": "United States", "original_inventory_sector": "electricity-generation", "asset_name": "W A Parish", "asset_type": "coal", "emissions_quantity": 11796000.0 }, "geometry": { "type": "Point", "coordinates": [ -95.6326, 29.479 ] } },
{ "type": "Feature", "id": 40, "properties": { "asset_id": 1670131, "year": 2021, "country": "United Arab Emirates", "original_inventory_sector": "electricity-generation", "asset_name": "Taweelah B Power and Desalination Station", "asset_type": "gas", "emissions_quantity": 9601000.0 }, "geometry": { "type": "Point", "coordinates": [ 54.683, 24.7624 ] } },
{ "type": "Feature", "id": 41, "properties": { "asset_id": 1669962, "year": 2021, "country": "Kuwait", "original_inventory_sector": "electricity-generation", "asset_name": "Sabiya power plant", "asset_type": "gas", "emissions_quantity": 15044000.0 }, "geometry": { "type": "Point", "coordinates": [ 48.1707, 29.5642 ] } },
{ "type": "Feature", "id": 42, "properties": { "asset_id": 1670002, "year": 2021, "country": "Vietnam", "original_inventory_sector": "electricity-generation", "asset_name": "Duyen Hai Power Generation Complex", "asset_type": "coal", "emissions_quantity": 13413000.0 }, "geometry": { "type": "Point", "coordinates": [ 106.5268, 9.5835 ] } },
{ "type": "Feature", "id": 43, "properties": { "asset_id": 1670331, "year": 2021, "country": "China", "original_inventory_sector": "electricity-generation", "asset_name": "SGCC Ewenki power station", "asset_type": "coal", "emissions_quantity": 6501000.0 }, "geometry": { "type": "Point", "coordinates": [ 119.9406, 48.73 ] } },
{ "type": "Feature", "id": 44, "properties": { "asset_id": 11987671, "year": 2021, "country": "China", "original_inventory_sector": "electricity-generation", "asset_name": "Wangqu power station", "asset_type": "coal", "emissions_quantity": 5636000.0 }, "geometry": { "type": "Point", "coordinates": [ 113.1915, 36.3478 ] } },
{ "type": "Feature", "id": 45, "properties": { "asset_id": 1670206, "year": 2021, "country": "India", "original_inventory_sector": "electricity-generation", "asset_name": "North Chennai Thermal Power Station", "asset_type": "coal", "emissions_quantity": 8548000.0 }, "geometry": { "type": "Point", "coordinates": [ 80.3278, 13.253 ] } },
{ "type": "Feature", "id": 46, "properties": { "asset_id": 1670000, "year": 2021, "country": "Malaysia", "original_inventory_sector": "electricity-generation", "asset_name": "Tanjung Bin power station", "asset_type": "coal", "emissions_quantity": 15928000.0 }, "geometry": { "type": "Point", "coordinates": [ 103.5422, 1.334 ] } },
{ "type": "Feature", "id": 47, "properties": { "asset_id": 1670021, "year": 2021, "country": "United States", "original_inventory_sector": "electricity-generation", "asset_name": "Gibson", "asset_type": "coal", "emissions_quantity": 9527000.0 }, "geometry": { "type": "Point", "coordinates": [ -87.7658, 38.3722 ] } },
{ "type": "Feature", "id": 48, "properties": { "asset_id": 1670345, "year": 2021, "country": "Brazil", "original_inventory_sector": "electricity-generation", "asset_name": "Jorge Lacerda power station", "asset_type": "coal", "emissions_quantity": 7675000.0 }, "geometry": { "type": "Point", "coordinates": [ -48.969, -28.454 ] } },
{ "type": "Feature", "id": 49, "properties": { "asset_id": 1670121, "year": 2021, "country": "Turkmenistan", "original_inventory_sector": "electricity-generation", "asset_name": "Mary power station", "asset_type": "gas", "emissions_quantity": 7287000.0 }, "geometry": { "type": "Point", "coordinates": [ 61.8413, 37.5003 ] } },
{ "type": "Feature", "id": 50, "properties": { "asset_id": 1669981, "year": 2021, "country": "India", "original_inventory_sector": "electricity-generation", "asset_name": "Tata Mundra Ultra Mega Power Project", "asset_type": "coal", "emissions_quantity": 18685000.0 }, "geometry": { "type": "Point", "coordinates": [ 69.5281, 22.8158 ] } },
{ "type": "Feature", "id": 51, "properties": { "asset_id": 1670277, "year": 2021, "country": "India", "original_inventory_sector": "electricity-generation", "asset_name": "Yermarus power station", "asset_type": "coal", "emissions_quantity": 7474000.0 }, "geometry": { "type": "Point", "coordinates": [ 77.3561, 16.2953 ] } },
{ "type": "Feature", "id": 52, "properties": { "asset_id": 1670126, "year": 2021, "country": "Israel", "original_inventory_sector": "electricity-generation", "asset_name": "Orot Rabin power station", "asset_type": "coal", "emissions_quantity": 9398000.0 }, "geometry": { "type": "Point", "coordinates": [ 34.8863, 32.4699 ] } },
{ "type": "Feature", "id": 53, "properties": { "asset_id": 1670335, "year": 2021, "country": "United States", "original_inventory_sector": "electricity-generation", "asset_name": "R M Schahfer", "asset_type": "coal", "emissions_quantity": 7352000.0 }, "geometry": { "type": "Point", "coordinates": [ -87.0261, 41.2164 ] } },
{ "type": "Feature", "id": 54, "properties": { "asset_id": 1670007, "year": 2021, "country": "United Arab Emirates", "original_inventory_sector": "electricity-generation", "asset_name": "Jebel Ali M Power and Desalination Station", "asset_type": "gas", "emissions_quantity": 17248000.0 }, "geometry": { "type": "Point", "coordinates": [ 55.1116, 25.0493 ] } },
{ "type": "Feature", "id": 55, "properties": { "asset_id": 1670327, "year": 2020, "country": "United States", "original_inventory_sector": "electricity-generation", "asset_name": "Mt Storm", "asset_type": "coal", "emissions_quantity": 6214000.0 }, "geometry": { "type": "Point", "coordinates": [ -79.2636, 39.2008 ] } },
{ "type": "Feature", "id": 56, "properties": { "asset_id": 1670218, "year": 2021, "country": "India", "original_inventory_sector": "electricity-generation", "asset_name": "KSK Mahanadi Power Project", "asset_type": "coal", "emissions_quantity": 8408000.0 }, "geometry": { "type": "Point", "coordinates": [ 82.4091, 21.9603 ] } },
{ "type": "Feature", "id": 57, "properties": { "asset_id": 1670317, "year": 2021, "country": "United States", "original_inventory_sector": "electricity-generation", "asset_name": "Miami Fort", "asset_type": "coal", "emissions_quantity": 6809000.0 }, "geometry": { "type": "Point", "coordinates": [ -84.8036, 39.1128 ] } },
{ "type": "Feature", "id": 58, "properties": { "asset_id": 1670117, "year": 2021, "country": "Germany", "original_inventory_sector": "electricity-generation", "asset_name": "Niederaussem power station", "asset_type": "coal", "emissions_quantity": 12050000.0 }, "geometry": { "type": "Point", "coordinates": [ 6.669, 50.9957 ] } },
{ "type": "Feature", "id": 59, "properties": { "asset_id": 11987562, "year": 2021, "country": "China", "original_inventory_sector": "electricity-generation", "asset_name": "Hanfeng power station", "asset_type": "coal", "emissions_quantity": 4708000.0 }, "geometry": { "type": "Point", "coordinates": [ 114.1516, 36.4718 ] } },
{ "type": "Feature", "id": 60, "properties": { "asset_id": 1670098, "year": 2021, "country": "Germany", "original_inventory_sector": "electricity-generation", "asset_name": "Schwarze Pumpe power station", "asset_type": "coal", "emissions_quantity": 11062000.0 }, "geometry": { "type": "Point", "coordinates": [ 14.3535, 51.5379 ] } },
{ "type": "Feature", "id": 61, "properties": { "asset_id": 1670222, "year": 2021, "country": "Brazil", "original_inventory_sector": "electricity-generation", "asset_name": "Porto do Pecém power station", "asset_type": "coal", "emissions_quantity": 9717000.0 }, "geometry": { "type": "Point", "coordinates": [ -38.8751, -3.5824 ] } },
{ "type": "Feature", "id": 62, "properties": { "asset_id": 1670336, "year": 2021, "country": "United States", "original_inventory_sector": "electricity-generation", "asset_name": "Hunter", "asset_type": "coal", "emissions_quantity": 9394000.0 }, "geometry": { "type": "Point", "coordinates": [ -111.0289, 39.1747 ] } },
{ "type": "Feature", "id": 63, "properties": { "asset_id": 1670207, "year": 2021, "country": "Kuwait", "original_inventory_sector": "electricity-generation", "asset_name": "Doha West power station", "asset_type": "gas_or_oil", "emissions_quantity": 7562000.0 }, "geometry": { "type": "Point", "coordinates": [ 47.7914, 29.368 ] } },
{ "type": "Feature", "id": 64, "properties": { "asset_id": 1670427, "year": 2021, "country": "China", "original_inventory_sector": "electricity-generation", "asset_name": "Gansu Chongxin power station", "asset_type": "coal", "emissions_quantity": 5357000.0 }, "geometry": { "type": "Point", "coordinates": [ 106.9194, 35.2795 ] } },
{ "type": "Feature", "id": 65, "properties": { "asset_id": 1670357, "year": 2021, "country": "Vietnam", "original_inventory_sector": "electricity-generation", "asset_name": "Hai Phong Thermal Power Station", "asset_type": "coal", "emissions_quantity": 5065000.0 }, "geometry": { "type": "Point", "coordinates": [ 106.7573, 20.9404 ] } },
{ "type": "Feature", "id": 66, "properties": { "asset_id": 1670247, "year": 2021, "country": "Australia", "original_inventory_sector": "electricity-generation", "asset_name": "Tarong power station", "asset_type": "coal", "emissions_quantity": 6941000.0 }, "geometry": { "type": "Point", "coordinates": [ 151.9153, -26.7837 ] } },
{ "type": "Feature", "id": 67, "properties": { "asset_id": 11987512, "year": 2021, "country": "Mexico", "original_inventory_sector": "electricity-generation", "asset_name": "José López Portillo power station", "asset_type": "coal", "emissions_quantity": 3713000.0 }, "geometry": { "type": "Point", "coordinates": [ -100.6875, 28.4884 ] } },
{ "type": "Feature", "id": 68, "properties": { "asset_id": 1669946, "year": 2021, "country": "Taiwan", "original_inventory_sector": "electricity-generation", "asset_name": "Mailiao power station", "asset_type": "coal", "emissions_quantity": 25987000.0 }, "geometry": { "type": "Point", "coordinates": [ 120.189, 23.8034 ] } },
{ "type": "Feature", "id": 69, "properties": { "asset_id": 1670324, "year": 2020, "country": "Libya", "original_inventory_sector": "electricity-generation", "asset_name": "North Benghazi power station", "asset_type": "gas", "emissions_quantity": 6254000.0 }, "geometry": { "type": "Point", "coordinates": [ 20.1326, 32.2019 ] } },
{ "type": "Feature", "id": 70, "properties": { "asset_id": 1670419, "year": 2021, "country": "India", "original_inventory_sector": "electricity-generation", "asset_name": "Khargone power station", "asset_type": "coal", "emissions_quantity": 6166000.0 }, "geometry": { "type": "Point", "coordinates": [ 75.8519, 22.0652 ] } },
{ "type": "Feature", "id": 71, "properties": { "asset_id": 1670129, "year": 2021, "country": "United States", "original_inventory_sector": "electricity-generation", "asset_name": "Bowen", "asset_type": "coal", "emissions_quantity": 9667000.0 }, "geometry": { "type": "Point", "coordinates": [ -84.9222, 34.1256 ] } },
{ "type": "Feature", "id": 72, "properties": { "asset_id": 11987469, "year": 2021, "country": "United States", "original_inventory_sector": "electricity-generation", "asset_name": "Homer City Generating Station", "asset_type": "coal", "emissions_quantity": 4626000.0 }, "geometry": { "type": "Point", "coordinates": [ -79.1961, 40.5128 ] } },
{ "type": "Feature", "id": 73, "properties": { "asset_id": 1670315, "year": 2021, "country": "Saudi Arabia", "original_inventory_sector": "electricity-generation", "asset_name": "Riyadh 10", "asset_type": "oil", "emissions_quantity": 6594000.0 }, "geometry": { "type": "Point", "coordinates": [ 47.017, 24.4165 ] } },
{ "type": "Feature", "id": 74, "properties": { "asset_id": 1670115, "year": 2020, "country": "United States", "original_inventory_sector": "electricity-generation", "asset_name": "W H Sammis", "asset_type": "coal", "emissions_quantity": 9848000.0 }, "geometry": { "type": "Point", "coordinates": [ -80.6317, 40.5313 ] } },
{ "type": "Feature", "id": 75, "properties": { "asset_id": 1670004, "year": 2021, "country": "Hong Kong SAR China", "original_inventory_sector": "electricity-generation", "asset_name": "Castle Peak power station", "asset_type": "coal", "emissions_quantity": 15333000.0 }, "geometry": { "type": "Point", "coordinates": [ 113.9205, 22.3751 ] } },
{ "type": "Feature", "id": 76, "properties": { "asset_id": 1669993, "year": 2021, "country": "India", "original_inventory_sector": "electricity-generation", "asset_name": "Anpara power station", "asset_type": "coal", "emissions_quantity": 17891000.0 }, "geometry": { "type": "Point", "coordinates": [ 82.7883, 24.2031 ] } },
{ "type": "Feature", "id": 77, "properties": { "asset_id": 1670294, "year": 2021, "country": null, "original_inventory_sector": "electricity-generation", "asset_name": "Kosovo B power station", "asset_type": "coal", "emissions_quantity": 6659000.0 }, "geometry": { "type": "Point", "coordinates": [ 21.0859, 42.6765 ] } },
{ "type": "Feature", "id": 78, "properties": { "asset_id": 1670141, "year": 2021, "country": "United States", "original_inventory_sector": "electricity-generation", "asset_name": "Scherer", "asset_type": "coal", "emissions_quantity": 7741000.0 }, "geometry": { "type": "Point", "coordinates": [ -83.8075, 33.0606 ] } },
{ "type": "Feature", "id": 79, "properties": { "asset_id": 1669965, "year": 2021, "country": "South Africa", "original_inventory_sector": "electricity-generation", "asset_name": "Kendal power station", "asset_type": "coal", "emissions_quantity": 18011000.0 }, "geometry": { "type": "Point", "coordinates": [ 28.9688, -26.0903 ] } },
{ "type": "Feature", "id": 80, "properties": { "asset_id": 1670354, "year": 2021, "country": "Serbia", "original_inventory_sector": "electricity-generation", "asset_name": "Kostolac power station", "asset_type": "coal", "emissions_quantity": 5342000.0 }, "geometry": { "type": "Point", "coordinates": [ 21.2114, 44.7307 ] } },
{ "type": "Feature", "id": 81, "properties": { "asset_id": 1669940, "year": 2021, "country": "South Korea", "original_inventory_sector": "electricity-generation", "asset_name": "Taean power station", "asset_type": "coal", "emissions_quantity": 32306000.0 }, "geometry": { "type": "Point", "coordinates": [ 126.2343, 36.9033 ] } },
{ "type": "Feature", "id": 82, "properties": { "asset_id": 1670385, "year": 2021, "country": "United Arab Emirates", "original_inventory_sector": "electricity-generation", "asset_name": "Umm Al Nar West and East Integrated Water and power plant", "asset_type": "gas", "emissions_quantity": 6834000.0 }, "geometry": { "type": "Point", "coordinates": [ 54.4876, 24.4348 ] } },
{ "type": "Feature", "id": 83, "properties": { "asset_id": 1670237, "year": 2021, "country": "United States", "original_inventory_sector": "electricity-generation", "asset_name": "AES Petersburg", "asset_type": "coal", "emissions_quantity": 8600000.0 }, "geometry": { "type": "Point", "coordinates": [ -87.2525, 38.5281 ] } },
{ "type": "Feature", "id": 84, "properties": { "asset_id": 1670303, "year": 2020, "country": "Uzbekistan", "original_inventory_sector": "electricity-generation", "asset_name": "Talimarjan power station", "asset_type": "gas", "emissions_quantity": 6543000.0 }, "geometry": { "type": "Point", "coordinates": [ 65.6298, 38.4812 ] } },
{ "type": "Feature", "id": 85, "properties": { "asset_id": 1670055, "year": 2021, "country": "Vietnam", "original_inventory_sector": "electricity-generation", "asset_name": "Mong Duong power station", "asset_type": "coal", "emissions_quantity": 9792000.0 }, "geometry": { "type": "Point", "coordinates": [ 107.3485, 21.0732 ] } },
{ "type": "Feature", "id": 86, "properties": { "asset_id": 11987838, "year": 2021, "country": "China", "original_inventory_sector": "electricity-generation", "asset_name": "Anhui Xuancheng power station", "asset_type": "coal", "emissions_quantity": 6093000.0 }, "geometry": { "type": "Point", "coordinates": [ 118.865, 30.8696 ] } },
{ "type": "Feature", "id": 87, "properties": { "asset_id": 1670430, "year": 2021, "country": "United States", "original_inventory_sector": "electricity-generation", "asset_name": "Kyger Creek", "asset_type": "coal", "emissions_quantity": 5287000.0 }, "geometry": { "type": "Point", "coordinates": [ -82.1289, 38.9144 ] } },
{ "type": "Feature", "id": 88, "properties": { "asset_id": 11987472, "year": 2019, "country": "United States", "original_inventory_sector": "electricity-generation", "asset_name": "Navajo", "asset_type": "coal", "emissions_quantity": 10404000.0 }, "geometry": { "type": "Point", "coordinates": [ -111.3886, 36.9047 ] } },
{ "type": "Feature", "id": 89, "properties": { "asset_id": 1670124, "year": 2021, "country": "United States", "original_inventory_sector": "electricity-generation", "asset_name": "Jeffrey Energy Center", "asset_type": "coal", "emissions_quantity": 8769000.0 }, "geometry": { "type": "Point", "coordinates": [ -96.1172, 39.2865 ] } },
{ "type": "Feature", "id": 90, "properties": { "asset_id": 1669992, "year": 2021, "country": "Taiwan", "original_inventory_sector": "electricity-generation", "asset_name": "Hsinta power station", "asset_type": "coal", "emissions_quantity": 17180000.0 }, "geometry": { "type": "Point", "coordinates": [ 120.1972, 22.8558 ] } },
{ "type": "Feature", "id": 91, "properties": { "asset_id": 1670429, "year": 2021, "country": "United States", "original_inventory_sector": "electricity-generation", "asset_name": "Baldwin Energy Complex", "asset_type": "coal", "emissions_quantity": 4543000.0 }, "geometry": { "type": "Point", "coordinates": [ -89.8544, 38.205 ] } },
{ "type": "Feature", "id": 92, "properties": { "asset_id": 11987477, "year": 2021, "country": "Canada", "original_inventory_sector": "electricity-generation", "asset_name": "Alberta Sundance power station", "asset_type": "coal", "emissions_quantity": 2459000.0 }, "geometry": { "type": "Point", "coordinates": [ -114.559, 53.5074 ] } },
{ "type": "Feature", "id": 93, "properties": { "asset_id": 1670081, "year": 2021, "country": "South Korea", "original_inventory_sector": "electricity-generation", "asset_name": "Samcheok Green power station", "asset_type": "coal", "emissions_quantity": 10497000.0 }, "geometry": { "type": "Point", "coordinates": [ 129.3418, 37.186 ] } },
{ "type": "Feature", "id": 94, "properties": { "asset_id": 11987561, "year": 2020, "country": "Germany", "original_inventory_sector": "electricity-generation", "asset_name": "Hamburg-Moorburg power station", "asset_type": "coal", "emissions_quantity": 4887000.0 }, "geometry": { "type": "Point", "coordinates": [ 9.9517, 53.49 ] } },
{ "type": "Feature", "id": 95, "properties": { "asset_id": 1670374, "year": 2021, "country": "United States", "original_inventory_sector": "electricity-generation", "asset_name": "Trimble County", "asset_type": "coal", "emissions_quantity": 6634000.0 }, "geometry": { "type": "Point", "coordinates": [ -85.4137, 38.5846 ] } },
{ "type": "Feature", "id": 96, "properties": { "asset_id": 1669957, "year": 2021, "country": "Malaysia", "original_inventory_sector": "electricity-generation", "asset_name": "Manjung power station", "asset_type": "coal", "emissions_quantity": 21065000.0 }, "geometry": { "type": "Point", "coordinates": [ 100.6423, 4.1586 ] } },
{ "type": "Feature", "id": 97, "properties": { "asset_id": 1670147, "year": 2021, "country": "Egypt", "original_inventory_sector": "electricity-generation", "asset_name": "New Capital power station", "asset_type": "gas", "emissions_quantity": 7962000.0 }, "geometry": { "type": "Point", "coordinates": [ 31.7558, 29.9094 ] } },
{ "type": "Feature", "id": 98, "properties": { "asset_id": 11987986, "year": 2021, "country": "United States", "original_inventory_sector": "electricity-generation", "asset_name": "Crystal River", "asset_type": "coal", "emissions_quantity": 5936000.0 }, "geometry": { "type": "Point", "coordinates": [ -82.6977, 28.9656 ] } },
{ "type": "Feature", "id": 99, "properties": { "asset_id": 1669995, "year": 2021, "country": "United States", "original_inventory_sector": "electricity-generation", "asset_name": "James H Miller Jr", "asset_type": "coal", "emissions_quantity": 20399000.0 }, "geometry": { "type": "Point", "coordinates": [ -87.0597, 33.6319 ] } },
{ "type": "Feature", "id": 100, "properties": { "asset_id": 1670372, "year": 2021, "country": "India", "original_inventory_sector": "electricity-generation", "asset_name": "Amravati Thermal Power Project", "asset_type": "coal", "emissions_quantity": 6306000.0 }, "geometry": { "type": "Point", "coordinates": [ 77.9012, 21.0803 ] } },
{ "type": "Feature", "id": 101, "properties": { "asset_id": 1670101, "year": 2021, "country": "Morocco", "original_inventory_sector": "electricity-generation", "asset_name": "Jorf Lasfar power station", "asset_type": "coal", "emissions_quantity": 10221000.0 }, "geometry": { "type": "Point", "coordinates": [ -8.6376, 33.1047 ] } },
{ "type": "Feature", "id": 102, "properties": { "asset_id": 11987837, "year": 2021, "country": "China", "original_inventory_sector": "electricity-generation", "asset_name": "Kangping power station", "asset_type": "coal", "emissions_quantity": 4518000.0 }, "geometry": { "type": "Point", "coordinates": [ 123.3658, 42.7009 ] } },
{ "type": "Feature", "id": 103, "properties": { "asset_id": 11987683, "year": 2021, "country": "Iran", "original_inventory_sector": "electricity-generation", "asset_name": "Shahid Rajaee power station", "asset_type": "gas_or_oil", "emissions_quantity": 5478000.0 }, "geometry": { "type": "Point", "coordinates": [ 50.2923, 36.157 ] } },
{ "type": "Feature", "id": 104, "properties": { "asset_id": 1670238, "year": 2021, "country": "United States", "original_inventory_sector": "electricity-generation", "asset_name": "Intermountain Power Project", "asset_type": "coal", "emissions_quantity": 8365000.0 }, "geometry": { "type": "Point", "coordinates": [ -112.5802, 39.5097 ] } },
{ "type": "Feature", "id": 105, "properties": { "asset_id": 11987513, "year": 2021, "country": "Mexico", "original_inventory_sector": "electricity-generation", "asset_name": "Manuel Álvarez Moreno power station", "asset_type": "gas", "emissions_quantity": 5412000.0 }, "geometry": { "type": "Point", "coordinates": [ -104.3184, 19.0268 ] } },
{ "type": "Feature", "id": 106, "properties": { "asset_id": 1670356, "year": 2021, "country": "Philippines", "original_inventory_sector": "electricity-generation", "asset_name": "Sual power station", "asset_type": "coal", "emissions_quantity": 6421000.0 }, "geometry": { "type": "Point", "coordinates": [ 120.1006, 16.125 ] } },
{ "type": "Feature", "id": 107, "properties": { "asset_id": 1670145, "year": 2021, "country": "Egypt", "original_inventory_sector": "electricity-generation", "asset_name": "Beni Suef power plant", "asset_type": "gas", "emissions_quantity": 7962000.0 }, "geometry": { "type": "Point", "coordinates": [ 31.0076, 28.921 ] } },
{ "type": "Feature", "id": 108, "properties": { "asset_id": 1670013, "year": 2021, "country": "India", "original_inventory_sector": "electricity-generation", "asset_name": "Tamnar power station", "asset_type": "coal", "emissions_quantity": 15882000.0 }, "geometry": { "type": "Point", "coordinates": [ 83.4513, 22.0987 ] } },
{ "type": "Feature", "id": 109, "properties": { "asset_id": 1670015, "year": 2021, "country": "Taiwan", "original_inventory_sector": "electricity-generation", "asset_name": "Linkou power station", "asset_type": "coal", "emissions_quantity": 14850000.0 }, "geometry": { "type": "Point", "coordinates": [ 121.298, 25.1209 ] } },
{ "type": "Feature", "id": 110, "properties": { "asset_id": 1670437, "year": 2021, "country": "Germany", "original_inventory_sector": "electricity-generation", "asset_name": "Lippendorf power station", "asset_type": "coal", "emissions_quantity": 8040000.0 }, "geometry": { "type": "Point", "coordinates": [ 12.3729, 51.1845 ] } },
{ "type": "Feature", "id": 111, "properties": { "asset_id": 11987557, "year": 2021, "country": "Germany", "original_inventory_sector": "electricity-generation", "asset_name": "GKM (Mannheim) power station", "asset_type": "coal", "emissions_quantity": 7204000.0 }, "geometry": { "type": "Point", "coordinates": [ 8.4904, 49.4457 ] } },
{ "type": "Feature", "id": 112, "properties": { "asset_id": 11987698, "year": 2021, "country": "Turkey", "original_inventory_sector": "electricity-generation", "asset_name": "Soma power station", "asset_type": "coal", "emissions_quantity": 5342000.0 }, "geometry": { "type": "Point", "coordinates": [ 27.6352, 39.1945 ] } },
{ "type": "Feature", "id": 113, "properties": { "asset_id": 11987450, "year": 2021, "country": "United States", "original_inventory_sector": "electricity-generation", "asset_name": "Rockport", "asset_type": "coal", "emissions_quantity": 4833000.0 }, "geometry": { "type": "Point", "coordinates": [ -87.0372, 37.9256 ] } },
{ "type": "Feature", "id": 114, "properties": { "asset_id": 1670312, "year": 2021, "country": "India", "original_inventory_sector": "electricity-generation", "asset_name": "Vallur Thermal Power Plant", "asset_type": "coal", "emissions_quantity": 7007000.0 }, "geometry": { "type": "Point", "coordinates": [ 80.3018, 13.2371 ] } },
{ "type": "Feature", "id": 115, "properties": { "asset_id": 1670343, "year": 2021, "country": "Saudi Arabia", "original_inventory_sector": "electricity-generation", "asset_name": "YANBU (SWCC)", "asset_type": "oil", "emissions_quantity": 6294000.0 }, "geometry": { "type": "Point", "coordinates": [ 38.3829, 23.8606 ] } },
{ "type": "Feature", "id": 116, "properties": { "asset_id": 1670025, "year": 2021, "country": "Saudi Arabia", "original_inventory_sector": "electricity-generation", "asset_name": "SHAIBA (SEC)", "asset_type": "oil", "emissions_quantity": 13855000.0 }, "geometry": { "type": "Point", "coordinates": [ 39.5559, 20.6275 ] } },
{ "type": "Feature", "id": 117, "properties": { "asset_id": 1670302, "year": 2021, "country": "Saudi Arabia", "original_inventory_sector": "electricity-generation", "asset_name": "Faras power plant", "asset_type": "gas", "emissions_quantity": 6888000.0 }, "geometry": { "type": "Point", "coordinates": [ 49.2903, 25.2106 ] } },
{ "type": "Feature", "id": 118, "properties": { "asset_id": 1670184, "year": 2021, "country": "United Arab Emirates", "original_inventory_sector": "electricity-generation", "asset_name": "Shuweihat S3 power plant", "asset_type": "gas", "emissions_quantity": 10448000.0 }, "geometry": { "type": "Point", "coordinates": [ 52.5683, 24.1602 ] } },
{ "type": "Feature", "id": 119, "properties": { "asset_id": 1670108, "year": 2021, "country": "United States", "original_inventory_sector": "electricity-generation", "asset_name": "Jim Bridger", "asset_type": "coal", "emissions_quantity": 10455000.0 }, "geometry": { "type": "Point", "coordinates": [ -108.7875, 41.7378 ] } },
{ "type": "Feature", "id": 120, "properties": { "asset_id": 1670162, "year": 2021, "country": "Australia", "original_inventory_sector": "electricity-generation", "asset_name": "Gladstone power station", "asset_type": "coal", "emissions_quantity": 8317000.0 }, "geometry": { "type": "Point", "coordinates": [ 151.2197, -23.8507 ] } },
{ "type": "Feature", "id": 121, "properties": { "asset_id": 11987889, "year": 2021, "country": "India", "original_inventory_sector": "electricity-generation", "asset_name": "Gadarwara Super Thermal Power Project", "asset_type": "coal", "emissions_quantity": 7474000.0 }, "geometry": { "type": "Point", "coordinates": [ 78.8661, 22.8618 ] } },
{ "type": "Feature", "id": 122, "properties": { "asset_id": 1669971, "year": 2021, "country": "Kuwait", "original_inventory_sector": "electricity-generation", "asset_name": "Az Zour South power plant", "asset_type": "gas", "emissions_quantity": 13792000.0 }, "geometry": { "type": "Point", "coordinates": [ 48.3701, 28.7055 ] } },
{ "type": "Feature", "id": 123, "properties": { "asset_id": 1670102, "year": 2021, "country": "Kazakhstan", "original_inventory_sector": "electricity-generation", "asset_name": "Ekibastuz-1 power station", "asset_type": "coal", "emissions_quantity": 10854000.0 }, "geometry": { "type": "Point", "coordinates": [ 75.3769, 51.8861 ] } },
{ "type": "Feature", "id": 124, "properties": { "asset_id": 1670010, "year": 2021, "country": "Australia", "original_inventory_sector": "electricity-generation", "asset_name": "Eraring power station", "asset_type": "coal", "emissions_quantity": 14287000.0 }, "geometry": { "type": "Point", "coordinates": [ 151.5214, -33.0622 ] } },
{ "type": "Feature", "id": 125, "properties": { "asset_id": 1670146, "year": 2021, "country": "Egypt", "original_inventory_sector": "electricity-generation", "asset_name": "Burullus power plant", "asset_type": "gas", "emissions_quantity": 7962000.0 }, "geometry": { "type": "Point", "coordinates": [ 30.8067, 31.5307 ] } },
{ "type": "Feature", "id": 126, "properties": { "asset_id": 1669960, "year": 2021, "country": "India", "original_inventory_sector": "electricity-generation", "asset_name": "Mundra Thermal Power Project (Adani)", "asset_type": "coal", "emissions_quantity": 21581000.0 }, "geometry": { "type": "Point", "coordinates": [ 69.5535, 22.8235 ] } },
{ "type": "Feature", "id": 127, "properties": { "asset_id": 1670005, "year": 2021, "country": "Thailand", "original_inventory_sector": "electricity-generation", "asset_name": "Mae Moh power station", "asset_type": "coal", "emissions_quantity": 12049000.0 }, "geometry": { "type": "Point", "coordinates": [ 99.752, 18.296 ] } },
{ "type": "Feature", "id": 128, "properties": { "asset_id": 11987714, "year": 2021, "country": "Poland", "original_inventory_sector": "electricity-generation", "asset_name": "Patnow power station", "asset_type": "coal", "emissions_quantity": 5079000.0 }, "geometry": { "type": "Point", "coordinates": [ 18.237, 52.302 ] } },
{ "type": "Feature", "id": 129, "properties": { "asset_id": 1670367, "year": 2021, "country": "Saudi Arabia", "original_inventory_sector": "electricity-generation", "asset_name": "JEDDAH SOUTH", "asset_type": "oil", "emissions_quantity": 6058000.0 }, "geometry": { "type": "Point", "coordinates": [ 39.177, 21.21 ] } },
{ "type": "Feature", "id": 130, "properties": { "asset_id": 1670436, "year": 2021, "country": "India", "original_inventory_sector": "electricity-generation", "asset_name": "Raikheda power station", "asset_type": "coal", "emissions_quantity": 5965000.0 }, "geometry": { "type": "Point", "coordinates": [ 81.8525, 21.4499 ] } },
{ "type": "Feature", "id": 131, "properties": { "asset_id": 1670028, "year": 2021, "country": "United States", "original_inventory_sector": "electricity-generation", "asset_name": "Gavin Power, LLC", "asset_type": "coal", "emissions_quantity": 14167000.0 }, "geometry": { "type": "Point", "coordinates": [ -82.1158, 38.9347 ] } },
{ "type": "Feature", "id": 132, "properties": { "asset_id": 1670001, "year": 2021, "country": "Germany", "original_inventory_sector": "electricity-generation", "asset_name": "Boxberg power station", "asset_type": "coal", "emissions_quantity": 15090000.0 }, "geometry": { "type": "Point", "coordinates": [ 14.5684, 51.4187 ] } },
{ "type": "Feature", "id": 133, "properties": { "asset_id": 1670311, "year": 2020, "country": "Iran", "original_inventory_sector": "electricity-generation", "asset_name": "Kerman power station", "asset_type": "gas", "emissions_quantity": 6464000.0 }, "geometry": { "type": "Point", "coordinates": [ 56.7932, 30.21 ] } },
{ "type": "Feature", "id": 134, "properties": { "asset_id": 1670319, "year": 2020, "country": "Belarus", "original_inventory_sector": "electricity-generation", "asset_name": "Lukoml GRES power station", "asset_type": "gas", "emissions_quantity": 6293000.0 }, "geometry": { "type": "Point", "coordinates": [ 29.1333, 54.68 ] } },
{ "type": "Feature", "id": 135, "properties": { "asset_id": 11987535, "year": 2021, "country": "Thailand", "original_inventory_sector": "electricity-generation", "asset_name": "Wang Noi power station", "asset_type": "gas", "emissions_quantity": 5283000.0 }, "geometry": { "type": "Point", "coordinates": [ 100.7805, 14.2324 ] } },
{ "type": "Feature", "id": 136, "properties": { "asset_id": 1670171, "year": 2021, "country": "India", "original_inventory_sector": "electricity-generation", "asset_name": "Singrauli Super Thermal Power Station", "asset_type": "coal", "emissions_quantity": 9343000.0 }, "geometry": { "type": "Point", "coordinates": [ 82.7064, 24.1042 ] } },
{ "type": "Feature", "id": 137, "properties": { "asset_id": 11987621, "year": 2021, "country": "Bulgaria", "original_inventory_sector": "electricity-generation", "asset_name": "Maritsa Itzok-3 power station", "asset_type": "coal", "emissions_quantity": 6314000.0 }, "geometry": { "type": "Point", "coordinates": [ 26.0033, 42.1444 ] } },
{ "type": "Feature", "id": 138, "properties": { "asset_id": 1670239, "year": 2021, "country": "South Africa", "original_inventory_sector": "electricity-generation", "asset_name": "Kusile Power Station", "asset_type": "coal", "emissions_quantity": 14002000.0 }, "geometry": { "type": "Point", "coordinates": [ 28.9249, -25.9201 ] } },
{ "type": "Feature", "id": 139, "properties": { "asset_id": 1670100, "year": 2021, "country": "United States", "original_inventory_sector": "electricity-generation", "asset_name": "Prairie State Generating Station", "asset_type": "coal", "emissions_quantity": 12706000.0 }, "geometry": { "type": "Point", "coordinates": [ -89.6669, 38.2792 ] } },
{ "type": "Feature", "id": 140, "properties": { "asset_id": 1669943, "year": 2021, "country": "Poland", "original_inventory_sector": "electricity-generation", "asset_name": "Belchatow power station", "asset_type": "coal", "emissions_quantity": 25539000.0 }, "geometry": { "type": "Point", "coordinates": [ 19.3265, 51.2679 ] } },
{ "type": "Feature", "id": 141, "properties": { "asset_id": 1670111, "year": 2021, "country": "Germany", "original_inventory_sector": "electricity-generation", "asset_name": "Janschwalde power station", "asset_type": "coal", "emissions_quantity": 9853000.0 }, "geometry": { "type": "Point", "coordinates": [ 14.4578, 51.8357 ] } },
{ "type": "Feature", "id": 142, "properties": { "asset_id": 1670114, "year": 2021, "country": "United States", "original_inventory_sector": "electricity-generation", "asset_name": "Cross", "asset_type": "coal", "emissions_quantity": 7475000.0 }, "geometry": { "type": "Point", "coordinates": [ -80.1132, 33.3715 ] } },
{ "type": "Feature", "id": 143, "properties": { "asset_id": 1670074, "year": 2021, "country": "Taiwan", "original_inventory_sector": "electricity-generation", "asset_name": "Datan power station", "asset_type": "gas", "emissions_quantity": 11435000.0 }, "geometry": { "type": "Point", "coordinates": [ 121.0482, 25.0297 ] } },
{ "type": "Feature", "id": 144, "properties": { "asset_id": 1670035, "year": 2021, "country": "India", "original_inventory_sector": "electricity-generation", "asset_name": "Sipat power station", "asset_type": "coal", "emissions_quantity": 13920000.0 }, "geometry": { "type": "Point", "coordinates": [ 82.2904, 22.1317 ] } },
{ "type": "Feature", "id": 145, "properties": { "asset_id": 1670189, "year": 2021, "country": "Thailand", "original_inventory_sector": "electricity-generation", "asset_name": "Ratchaburi (RATCHGEN) power station", "asset_type": "gas", "emissions_quantity": 9966000.0 }, "geometry": { "type": "Point", "coordinates": [ 99.8872, 13.6023 ] } },
{ "type": "Feature", "id": 146, "properties": { "asset_id": 1670423, "year": 2021, "country": "China", "original_inventory_sector": "electricity-generation", "asset_name": "CPI Chifeng Daban power station", "asset_type": "coal", "emissions_quantity": 6137000.0 }, "geometry": { "type": "Point", "coordinates": [ 118.7114, 43.5896 ] } },
{ "type": "Feature", "id": 147, "properties": { "asset_id": 1670361, "year": 2021, "country": "China", "original_inventory_sector": "electricity-generation", "asset_name": "Bayanhua Jinshan power station", "asset_type": "coal", "emissions_quantity": 5949000.0 }, "geometry": { "type": "Point", "coordinates": [ 118.7083, 44.9315 ] } },
{ "type": "Feature", "id": 148, "properties": { "asset_id": 1670177, "year": 2021, "country": "India", "original_inventory_sector": "electricity-generation", "asset_name": "Lalitpur power project", "asset_type": "coal", "emissions_quantity": 9249000.0 }, "geometry": { "type": "Point", "coordinates": [ 78.6469, 24.7958 ] } },
{ "type": "Feature", "id": 149, "properties": { "asset_id": 1670358, "year": 2021, "country": "India", "original_inventory_sector": "electricity-generation", "asset_name": "Baradarha power station", "asset_type": "coal", "emissions_quantity": 5816000.0 }, "geometry": { "type": "Point", "coordinates": [ 83.1889, 21.9114 ] } },
{ "type": "Feature", "id": 150, "properties": { "asset_id": 1670109, "year": 2021, "country": "India", "original_inventory_sector": "electricity-generation", "asset_name": "Mauda power station", "asset_type": "coal", "emissions_quantity": 10837000.0 }, "geometry": { "type": "Point", "coordinates": [ 79.3965, 21.1807 ] } },
{ "type": "Feature", "id": 151, "properties": { "asset_id": 1670202, "year": 2021, "country": "Bahrain", "original_inventory_sector": "electricity-generation", "asset_name": "Aluminium Bahrain (ALBA) power station", "asset_type": "gas", "emissions_quantity": 7925000.0 }, "geometry": { "type": "Point", "coordinates": [ 50.5951, 26.0911 ] } },
{ "type": "Feature", "id": 152, "properties": { "asset_id": 1670278, "year": 2021, "country": "United Arab Emirates", "original_inventory_sector": "electricity-generation", "asset_name": "Emirates Aluminum Smelter Complex power station", "asset_type": "gas", "emissions_quantity": 7539000.0 }, "geometry": { "type": "Point", "coordinates": [ 54.7105, 24.7989 ] } },
{ "type": "Feature", "id": 153, "properties": { "asset_id": 11987788, "year": 2021, "country": "China", "original_inventory_sector": "electricity-generation", "asset_name": "Guangzhou Zhujiang power station", "asset_type": "coal", "emissions_quantity": 5927000.0 }, "geometry": { "type": "Point", "coordinates": [ 113.5678, 22.8148 ] } },
{ "type": "Feature", "id": 154, "properties": { "asset_id": 11987438, "year": 2020, "country": "United States", "original_inventory_sector": "electricity-generation", "asset_name": "Conesville", "asset_type": "coal", "emissions_quantity": 2505000.0 }, "geometry": { "type": "Point", "coordinates": [ -81.8811, 40.1842 ] } },
{ "type": "Feature", "id": 155, "properties": { "asset_id": 1670375, "year": 2021, "country": "Saudi Arabia", "original_inventory_sector": "electricity-generation", "asset_name": "Shuqaiq Steam Power Plant", "asset_type": "oil", "emissions_quantity": 5975000.0 }, "geometry": { "type": "Point", "coordinates": [ 42.1078, 17.6391 ] } },
{ "type": "Feature", "id": 156, "properties": { "asset_id": 11987465, "year": 2021, "country": "United States", "original_inventory_sector": "electricity-generation", "asset_name": "Huntington", "asset_type": "coal", "emissions_quantity": 6342000.0 }, "geometry": { "type": "Point", "coordinates": [ -111.0781, 39.3792 ] } },
{ "type": "Feature", "id": 157, "properties": { "asset_id": 1670096, "year": 2021, "country": "Malaysia", "original_inventory_sector": "electricity-generation", "asset_name": "Jimah East power station", "asset_type": "coal", "emissions_quantity": 10276000.0 }, "geometry": { "type": "Point", "coordinates": [ 101.7309, 2.5927 ] } },
{ "type": "Feature", "id": 158, "properties": { "asset_id": 11987478, "year": 2021, "country": "United States", "original_inventory_sector": "electricity-generation", "asset_name": "Springerville", "asset_type": "coal", "emissions_quantity": 6369000.0 }, "geometry": { "type": "Point", "coordinates": [ -109.1639, 34.3186 ] } },
{ "type": "Feature", "id": 159, "properties": { "asset_id": 1669948, "year": 2021, "country": "Indonesia", "original_inventory_sector": "electricity-generation", "asset_name": "PLN Paiton power station", "asset_type": "coal", "emissions_quantity": 24291000.0 }, "geometry": { "type": "Point", "coordinates": [ 113.585, -7.7147 ] } },
{ "type": "Feature", "id": 160, "properties": { "asset_id": 1670068, "year": 2021, "country": "India", "original_inventory_sector": "electricity-generation", "asset_name": "Ramagundam power station", "asset_type": "coal", "emissions_quantity": 12145000.0 }, "geometry": { "type": "Point", "coordinates": [ 79.4705, 18.7515 ] } },
{ "type": "Feature", "id": 161, "properties": { "asset_id": 11987709, "year": 2020, "country": "Germany", "original_inventory_sector": "electricity-generation", "asset_name": "Westfalen power station", "asset_type": "coal", "emissions_quantity": 7449000.0 }, "geometry": { "type": "Point", "coordinates": [ 7.9714, 51.6786 ] } },
{ "type": "Feature", "id": 162, "properties": { "asset_id": 1670149, "year": 2021, "country": "Thailand", "original_inventory_sector": "electricity-generation", "asset_name": "Map Ta Phut BLCP power station", "asset_type": "coal", "emissions_quantity": 7038000.0 }, "geometry": { "type": "Point", "coordinates": [ 101.1605, 12.6435 ] } },
{ "type": "Feature", "id": 163, "properties": { "asset_id": 1669964, "year": 2021, "country": "Saudi Arabia", "original_inventory_sector": "electricity-generation", "asset_name": "Qurayyah ll power plant", "asset_type": "gas", "emissions_quantity": 20170000.0 }, "geometry": { "type": "Point", "coordinates": [ 50.1351, 25.826 ] } },
{ "type": "Feature", "id": 164, "properties": { "asset_id": 1670020, "year": 2021, "country": "Taiwan", "original_inventory_sector": "electricity-generation", "asset_name": "Talin power station", "asset_type": "coal", "emissions_quantity": 14542000.0 }, "geometry": { "type": "Point", "coordinates": [ 120.335, 22.537 ] } },
{ "type": "Feature", "id": 165, "properties": { "asset_id": 1670248, "year": 2021, "country": "United States", "original_inventory_sector": "electricity-generation", "asset_name": "Fayette Power Project", "asset_type": "coal", "emissions_quantity": 10236000.0 }, "geometry": { "type": "Point", "coordinates": [ -96.7506, 29.9172 ] } },
{ "type": "Feature", "id": 166, "properties": { "asset_id": 1670224, "year": 2021, "country": "United States", "original_inventory_sector": "electricity-generation", "asset_name": "Roxboro", "asset_type": "coal", "emissions_quantity": 9227000.0 }, "geometry": { "type": "Point", "coordinates": [ -79.0731, 36.4833 ] } },
{ "type": "Feature", "id": 167, "properties": { "asset_id": 11987641, "year": 2021, "country": "Greece", "original_inventory_sector": "electricity-generation", "asset_name": "Agios Dimitrios power station", "asset_type": "coal", "emissions_quantity": 3824000.0 }, "geometry": { "type": "Point", "coordinates": [ 21.9249, 40.3942 ] } },
{ "type": "Feature", "id": 168, "properties": { "asset_id": 1670341, "year": 2021, "country": "Saudi Arabia", "original_inventory_sector": "electricity-generation", "asset_name": "Shaybah Gas power plant", "asset_type": "gas", "emissions_quantity": 6417000.0 }, "geometry": { "type": "Point", "coordinates": [ 54.0711, 22.6062 ] } },
{ "type": "Feature", "id": 169, "properties": { "asset_id": 1669958, "year": 2021, "country": "Vietnam", "original_inventory_sector": "electricity-generation", "asset_name": "Vinh Tan power station", "asset_type": "coal", "emissions_quantity": 17912000.0 }, "geometry": { "type": "Point", "coordinates": [ 108.808, 11.317 ] } },
{ "type": "Feature", "id": 170, "properties": { "asset_id": 1670420, "year": 2021, "country": "India", "original_inventory_sector": "electricity-generation", "asset_name": "Barh I power station", "asset_type": "coal", "emissions_quantity": 9249000.0 }, "geometry": { "type": "Point", "coordinates": [ 85.7452, 25.4865 ] } },
{ "type": "Feature", "id": 171, "properties": { "asset_id": 1670282, "year": 2021, "country": "Australia", "original_inventory_sector": "electricity-generation", "asset_name": "Vales Point power station", "asset_type": "coal", "emissions_quantity": 6535000.0 }, "geometry": { "type": "Point", "coordinates": [ 151.5453, -33.161 ] } },
{ "type": "Feature", "id": 172, "properties": { "asset_id": 1670029, "year": 2021, "country": "Indonesia", "original_inventory_sector": "electricity-generation", "asset_name": "Tanjung Jati B power station", "asset_type": "coal", "emissions_quantity": 13263000.0 }, "geometry": { "type": "Point", "coordinates": [ 110.7435, -6.4448 ] } },
{ "type": "Feature", "id": 173, "properties": { "asset_id": 11987446, "year": 2021, "country": "United States", "original_inventory_sector": "electricity-generation", "asset_name": "Limestone", "asset_type": "coal", "emissions_quantity": 5845000.0 }, "geometry": { "type": "Point", "coordinates": [ -96.2531, 31.423 ] } },
{ "type": "Feature", "id": 174, "properties": { "asset_id": 1670256, "year": 2021, "country": "Azerbaijan", "original_inventory_sector": "electricity-generation", "asset_name": "Azerbaijan thermal power plant", "asset_type": "gas_or_oil", "emissions_quantity": 7398000.0 }, "geometry": { "type": "Point", "coordinates": [ 46.9909, 40.781 ] } },
{ "type": "Feature", "id": 175, "properties": { "asset_id": 11987818, "year": 2021, "country": "Iraq", "original_inventory_sector": "electricity-generation", "asset_name": "Wasset power station", "asset_type": "gas_or_oil", "emissions_quantity": 5509000.0 }, "geometry": { "type": "Point", "coordinates": [ 45.0846, 32.775 ] } },
{ "type": "Feature", "id": 176, "properties": { "asset_id": 11987841, "year": 2021, "country": "India", "original_inventory_sector": "electricity-generation", "asset_name": "Nabinagar Super Thermal Power Project", "asset_type": "coal", "emissions_quantity": 6166000.0 }, "geometry": { "type": "Point", "coordinates": [ 84.158, 24.776 ] } },
{ "type": "Feature", "id": 177, "properties": { "asset_id": 1670156, "year": 2021, "country": "United States", "original_inventory_sector": "electricity-generation", "asset_name": "Ghent", "asset_type": "coal", "emissions_quantity": 10861000.0 }, "geometry": { "type": "Point", "coordinates": [ -85.035, 38.7497 ] } },
{ "type": "Feature", "id": 178, "properties": { "asset_id": 1670422, "year": 2021, "country": "India", "original_inventory_sector": "electricity-generation", "asset_name": "Solapur power station", "asset_type": "coal", "emissions_quantity": 6166000.0 }, "geometry": { "type": "Point", "coordinates": [ 75.9832, 17.5513 ] } },
{ "type": "Feature", "id": 179, "properties": { "asset_id": 11987430, "year": 2021, "country": "United States", "original_inventory_sector": "electricity-generation", "asset_name": "Mountaineer", "asset_type": "coal", "emissions_quantity": 7209000.0 }, "geometry": { "type": "Point", "coordinates": [ -81.9344, 38.9794 ] } },
{ "type": "Feature", "id": 180, "properties": { "asset_id": 11987511, "year": 2021, "country": "Mexico", "original_inventory_sector": "electricity-generation", "asset_name": "Carbón II power station", "asset_type": "coal", "emissions_quantity": 4332000.0 }, "geometry": { "type": "Point", "coordinates": [ -100.699, 28.467 ] } },
{ "type": "Feature", "id": 181, "properties": { "asset_id": 1670371, "year": 2021, "country": "India", "original_inventory_sector": "electricity-generation", "asset_name": "Nasik RattanIndia Thermal Power Project", "asset_type": "coal", "emissions_quantity": 6306000.0 }, "geometry": { "type": "Point", "coordinates": [ 74.0817, 19.8667 ] } },
{ "type": "Feature", "id": 182, "properties": { "asset_id": 1670209, "year": 2021, "country": "United States", "original_inventory_sector": "electricity-generation", "asset_name": "Keystone", "asset_type": "coal", "emissions_quantity": 7530000.0 }, "geometry": { "type": "Point", "coordinates": [ -79.3411, 40.6604 ] } },
{ "type": "Feature", "id": 183, "properties": { "asset_id": 11987843, "year": 2021, "country": "India", "original_inventory_sector": "electricity-generation", "asset_name": "Meja Thermal Power Project", "asset_type": "coal", "emissions_quantity": 6166000.0 }, "geometry": { "type": "Point", "coordinates": [ 81.9401, 25.1459 ] } },
{ "type": "Feature", "id": 184, "properties": { "asset_id": 1670033, "year": 2021, "country": "India", "original_inventory_sector": "electricity-generation", "asset_name": "Rihand power station", "asset_type": "coal", "emissions_quantity": 14015000.0 }, "geometry": { "type": "Point", "coordinates": [ 82.7915, 24.027 ] } },
{ "type": "Feature", "id": 185, "properties": { "asset_id": 1670188, "year": 2021, "country": "United States", "original_inventory_sector": "electricity-generation", "asset_name": "Cardinal", "asset_type": "coal", "emissions_quantity": 10105000.0 }, "geometry": { "type": "Point", "coordinates": [ -80.6486, 40.2522 ] } },
{ "type": "Feature", "id": 186, "properties": { "asset_id": 1669967, "year": 2021, "country": "South Africa", "original_inventory_sector": "electricity-generation", "asset_name": "Medupi Power Station", "asset_type": "coal", "emissions_quantity": 20867000.0 }, "geometry": { "type": "Point", "coordinates": [ 27.5638, -23.705 ] } },
{ "type": "Feature", "id": 187, "properties": { "asset_id": 1670063, "year": 2021, "country": "Indonesia", "original_inventory_sector": "electricity-generation", "asset_name": "Cilacap Sumber power station", "asset_type": "coal", "emissions_quantity": 11354000.0 }, "geometry": { "type": "Point", "coordinates": [ 109.0898, -7.6857 ] } },
{ "type": "Feature", "id": 188, "properties": { "asset_id": 1670279, "year": 2021, "country": "United States", "original_inventory_sector": "electricity-generation", "asset_name": "Four Corners", "asset_type": "coal", "emissions_quantity": 7485000.0 }, "geometry": { "type": "Point", "coordinates": [ -108.4814, 36.69 ] } },
{ "type": "Feature", "id": 189, "properties": { "asset_id": 1670208, "year": 2021, "country": "United States", "original_inventory_sector": "electricity-generation", "asset_name": "Conemaugh", "asset_type": "coal", "emissions_quantity": 7324000.0 }, "geometry": { "type": "Point", "coordinates": [ -79.0611, 40.3842 ] } },
{ "type": "Feature", "id": 190, "properties": { "asset_id": 1670172, "year": 2021, "country": "United States", "original_inventory_sector": "electricity-generation", "asset_name": "Marshall (NC)", "asset_type": "coal", "emissions_quantity": 6928000.0 }, "geometry": { "type": "Point", "coordinates": [ -80.9658, 35.5975 ] } },
{ "type": "Feature", "id": 191, "properties": { "asset_id": 1670250, "year": 2021, "country": "Malaysia", "original_inventory_sector": "electricity-generation", "asset_name": "Jimah power station", "asset_type": "coal", "emissions_quantity": 7193000.0 }, "geometry": { "type": "Point", "coordinates": [ 101.7314, 2.5923 ] } },
{ "type": "Feature", "id": 192, "properties": { "asset_id": 11987459, "year": 2021, "country": "United States", "original_inventory_sector": "electricity-generation", "asset_name": "FirstEnergy Fort Martin Power Station", "asset_type": "coal", "emissions_quantity": 5336000.0 }, "geometry": { "type": "Point", "coordinates": [ -79.9275, 39.7108 ] } },
{ "type": "Feature", "id": 193, "properties": { "asset_id": 1670133, "year": 2021, "country": "Malaysia", "original_inventory_sector": "electricity-generation", "asset_name": "Sultan Aziz power station", "asset_type": "coal", "emissions_quantity": 9047000.0 }, "geometry": { "type": "Point", "coordinates": [ 101.3204, 3.1172 ] } },
{ "type": "Feature", "id": 194, "properties": { "asset_id": 11987527, "year": 2021, "country": "Australia", "original_inventory_sector": "electricity-generation", "asset_name": "Loy Yang B power station", "asset_type": "coal", "emissions_quantity": 5079000.0 }, "geometry": { "type": "Point", "coordinates": [ 146.586, -38.2555 ] } },
{ "type": "Feature", "id": 195, "properties": { "asset_id": 1669989, "year": 2021, "country": "United States", "original_inventory_sector": "electricity-generation", "asset_name": "Monroe (MI)", "asset_type": "coal", "emissions_quantity": 14847000.0 }, "geometry": { "type": "Point", "coordinates": [ -83.3464, 41.8906 ] } },
{ "type": "Feature", "id": 196, "properties": { "asset_id": 1670157, "year": 2021, "country": "United States", "original_inventory_sector": "electricity-generation", "asset_name": "Oak Grove (TX)", "asset_type": "coal", "emissions_quantity": 12409000.0 }, "geometry": { "type": "Point", "coordinates": [ -96.489, 31.1813 ] } },
{ "type": "Feature", "id": 197, "properties": { "asset_id": 1670283, "year": 2021, "country": "United States", "original_inventory_sector": "electricity-generation", "asset_name": "Belews Creek", "asset_type": "coal", "emissions_quantity": 9042000.0 }, "geometry": { "type": "Point", "coordinates": [ -80.0603, 36.2811 ] } },
{ "type": "Feature", "id": 198, "properties": { "asset_id": 1670332, "year": 2021, "country": "United States", "original_inventory_sector": "electricity-generation", "asset_name": "Clifty Creek", "asset_type": "coal", "emissions_quantity": 5230000.0 }, "geometry": { "type": "Point", "coordinates": [ -85.4206, 38.7378 ] } },
{ "type": "Feature", "id": 199, "properties": { "asset_id": 1670158, "year": 2021, "country": "Turkey", "original_inventory_sector": "electricity-generation", "asset_name": "İÇDAŞ Biga power station", "asset_type": "coal", "emissions_quantity": 8660000.0 }, "geometry": { "type": "Point", "coordinates": [ 27.0497, 40.3995 ] } },
{ "type": "Feature", "id": 200, "properties": { "asset_id": 1670421, "year": 2021, "country": "India", "original_inventory_sector": "electricity-generation", "asset_name": "Kawai Thermal Power Project", "asset_type": "coal", "emissions_quantity": 6166000.0 }, "geometry": { "type": "Point", "coordinates": [ 76.7371, 24.778 ] } },
{ "type": "Feature", "id": 201, "properties": { "asset_id": 11987970, "year": 2021, "country": "South Korea", "original_inventory_sector": "electricity-generation", "asset_name": "Goseong Green power station", "asset_type": "coal", "emissions_quantity": 10682000.0 }, "geometry": { "type": "Point", "coordinates": [ 128.1254, 34.9049 ] } },
{ "type": "Feature", "id": 202, "properties": { "asset_id": 1669972, "year": 2021, "country": "Serbia", "original_inventory_sector": "electricity-generation", "asset_name": "Nikola Tesla power station", "asset_type": "coal", "emissions_quantity": 16059000.0 }, "geometry": { "type": "Point", "coordinates": [ 20.1584, 44.6713 ] } },
{ "type": "Feature", "id": 203, "properties": { "asset_id": 11987519, "year": 2021, "country": "Ukraine", "original_inventory_sector": "electricity-generation", "asset_name": "Zaporizhia power station", "asset_type": "oil", "emissions_quantity": 4697000.0 }, "geometry": { "type": "Point", "coordinates": [ 34.6255, 47.5072 ] } },
{ "type": "Feature", "id": 204, "properties": { "asset_id": 1670017, "year": 2021, "country": "Saudi Arabia", "original_inventory_sector": "electricity-generation", "asset_name": "RABIGH", "asset_type": "oil", "emissions_quantity": 14812000.0 }, "geometry": { "type": "Point", "coordinates": [ 39.035, 22.665 ] } },
{ "type": "Feature", "id": 205, "properties": { "asset_id": 1670110, "year": 2021, "country": "Indonesia", "original_inventory_sector": "electricity-generation", "asset_name": "Jawa-7 power station", "asset_type": "coal", "emissions_quantity": 9957000.0 }, "geometry": { "type": "Point", "coordinates": [ 106.1008, -5.9917 ] } },
{ "type": "Feature", "id": 206, "properties": { "asset_id": 1669959, "year": 2021, "country": "India", "original_inventory_sector": "electricity-generation", "asset_name": "Vindhyachal power station", "asset_type": "coal", "emissions_quantity": 22235000.0 }, "geometry": { "type": "Point", "coordinates": [ 82.6719, 24.0983 ] } },
{ "type": "Feature", "id": 207, "properties": { "asset_id": 1670252, "year": 2021, "country": "Iran", "original_inventory_sector": "electricity-generation", "asset_name": "Shahid Montazeri power station", "asset_type": "oil", "emissions_quantity": 5572000.0 }, "geometry": { "type": "Point", "coordinates": [ 51.4952, 32.797 ] } },
{ "type": "Feature", "id": 208, "properties": { "asset_id": 1670334, "year": 2021, "country": "United States", "original_inventory_sector": "electricity-generation", "asset_name": "La Cygne", "asset_type": "coal", "emissions_quantity": 6596000.0 }, "geometry": { "type": "Point", "coordinates": [ -94.6456, 38.3481 ] } },
{ "type": "Feature", "id": 209, "properties": { "asset_id": 11987433, "year": 2021, "country": "United States", "original_inventory_sector": "electricity-generation", "asset_name": "Laramie River Station", "asset_type": "coal", "emissions_quantity": 6168000.0 }, "geometry": { "type": "Point", "coordinates": [ -104.8825, 42.1089 ] } },
{ "type": "Feature", "id": 210, "properties": { "asset_id": 1670243, "year": 2021, "country": "United States", "original_inventory_sector": "electricity-generation", "asset_name": "Sherburne County", "asset_type": "coal", "emissions_quantity": 8906000.0 }, "geometry": { "type": "Point", "coordinates": [ -93.8931, 45.3808 ] } },
{ "type": "Feature", "id": 211, "properties": { "asset_id": 1670298, "year": 2021, "country": "United States", "original_inventory_sector": "electricity-generation", "asset_name": "New Roads", "asset_type": "gas", "emissions_quantity": 7305000.0 }, "geometry": { "type": "Point", "coordinates": [ -91.3688, 30.7261 ] } },
{ "type": "Feature", "id": 212, "properties": { "asset_id": 1670296, "year": 2021, "country": "United States", "original_inventory_sector": "electricity-generation", "asset_name": "Seminole (FL)", "asset_type": "coal", "emissions_quantity": 6567000.0 }, "geometry": { "type": "Point", "coordinates": [ -81.6328, 29.7331 ] } },
{ "type": "Feature", "id": 213, "properties": { "asset_id": 1669966, "year": 2021, "country": "South Africa", "original_inventory_sector": "electricity-generation", "asset_name": "Matimba power station", "asset_type": "coal", "emissions_quantity": 17459000.0 }, "geometry": { "type": "Point", "coordinates": [ 27.6108, -23.6688 ] } },
{ "type": "Feature", "id": 214, "properties": { "asset_id": 1670264, "year": 2021, "country": "Saudi Arabia", "original_inventory_sector": "electricity-generation", "asset_name": "Ras Al-Khair power plant", "asset_type": "gas", "emissions_quantity": 7359000.0 }, "geometry": { "type": "Point", "coordinates": [ 49.1389, 27.5367 ] } },
{ "type": "Feature", "id": 215, "properties": { "asset_id": 1670215, "year": 2021, "country": "Poland", "original_inventory_sector": "electricity-generation", "asset_name": "Polaniec power station", "asset_type": "coal", "emissions_quantity": 8431000.0 }, "geometry": { "type": "Point", "coordinates": [ 21.3377, 50.4377 ] } },
{ "type": "Feature", "id": 216, "properties": { "asset_id": 1670099, "year": 2021, "country": "Kazakhstan", "original_inventory_sector": "electricity-generation", "asset_name": "Aksu power station", "asset_type": "coal", "emissions_quantity": 10898000.0 }, "geometry": { "type": "Point", "coordinates": [ 76.875, 52.12 ] } },
{ "type": "Feature", "id": 217, "properties": { "asset_id": 1670103, "year": 2021, "country": "Mexico", "original_inventory_sector": "electricity-generation", "asset_name": "Petacalco power station", "asset_type": "coal", "emissions_quantity": 8595000.0 }, "geometry": { "type": "Point", "coordinates": [ -102.1154, 17.9837 ] } },
{ "type": "Feature", "id": 218, "properties": { "asset_id": 1670329, "year": 2021, "country": "India", "original_inventory_sector": "electricity-generation", "asset_name": "Uchpinda power station", "asset_type": "coal", "emissions_quantity": 6727000.0 }, "geometry": { "type": "Point", "coordinates": [ 83.1208, 21.8864 ] } },
{ "type": "Feature", "id": 219, "properties": { "asset_id": 1670438, "year": 2021, "country": "Turkey", "original_inventory_sector": "electricity-generation", "asset_name": "Afşin-Elbistan-A power station", "asset_type": "coal", "emissions_quantity": 5504000.0 }, "geometry": { "type": "Point", "coordinates": [ 37.0259, 38.3473 ] } },
{ "type": "Feature", "id": 220, "properties": { "asset_id": 1670047, "year": 2021, "country": "United States", "original_inventory_sector": "electricity-generation", "asset_name": "John E Amos", "asset_type": "coal", "emissions_quantity": 10348000.0 }, "geometry": { "type": "Point", "coordinates": [ -81.8233, 38.4731 ] } },
{ "type": "Feature", "id": 221, "properties": { "asset_id": 1670043, "year": 2021, "country": "United States", "original_inventory_sector": "electricity-generation", "asset_name": "FirstEnergy Harrison Power Station", "asset_type": "coal", "emissions_quantity": 9241000.0 }, "geometry": { "type": "Point", "coordinates": [ -80.3325, 39.3842 ] } },
{ "type": "Feature", "id": 222, "properties": { "asset_id": 1669996, "year": 2021, "country": "China", "original_inventory_sector": "electricity-generation", "asset_name": "Suizhong power station", "asset_type": "coal", "emissions_quantity": 18089000.0 }, "geometry": { "type": "Point", "coordinates": [ 120.0096, 40.0796 ] } },
{ "type": "Feature", "id": 223, "properties": { "asset_id": 16332417, "year": 2021, "country": "Turkey", "original_inventory_sector": "electricity-generation", "asset_name": "Afşin-Elbistan-B power station", "asset_type": "coal", "emissions_quantity": 4003000.0 }, "geometry": { "type": "Point", "coordinates": [ 36.9806, 38.3533 ] } },
{ "type": "Feature", "id": 224, "properties": { "asset_id": 11987487, "year": 2021, "country": "India", "original_inventory_sector": "electricity-generation", "asset_name": "Kothagudem Thermal Power Station", "asset_type": "coal", "emissions_quantity": 6646000.0 }, "geometry": { "type": "Point", "coordinates": [ 80.6936, 17.6219 ] } },
{ "type": "Feature", "id": 225, "properties": { "asset_id": 16332419, "year": 2021, "country": "India", "original_inventory_sector": "electricity-generation", "asset_name": "Dr Narla Tata Rao power station", "asset_type": "coal", "emissions_quantity": 6255000.0 }, "geometry": { "type": "Point", "coordinates": [ 80.5393, 16.5952 ] } },
{ "type": "Feature", "id": 226, "properties": { "asset_id": 1670060, "year": 2021, "country": "China", "original_inventory_sector": "electricity-generation", "asset_name": "WEnergy Ma'anshan Power Station", "asset_type": "coal", "emissions_quantity": 12701000.0 }, "geometry": { "type": "Point", "coordinates": [ 118.4797, 31.7507 ] } },
{ "type": "Feature", "id": 227, "properties": { "asset_id": 1669991, "year": 2021, "country": "China", "original_inventory_sector": "electricity-generation", "asset_name": "CPI Pingwei power station", "asset_type": "coal", "emissions_quantity": 19629000.0 }, "geometry": { "type": "Point", "coordinates": [ 116.9014, 32.6842 ] } },
{ "type": "Feature", "id": 228, "properties": { "asset_id": 1670403, "year": 2021, "country": "China", "original_inventory_sector": "electricity-generation", "asset_name": "Wuhu Zhongdian power station", "asset_type": "coal", "emissions_quantity": 6351000.0 }, "geometry": { "type": "Point", "coordinates": [ 118.3445, 31.4521 ] } },
{ "type": "Feature", "id": 229, "properties": { "asset_id": 11987491, "year": 2021, "country": "Australia", "original_inventory_sector": "electricity-generation", "asset_name": "Callide power station", "asset_type": "coal", "emissions_quantity": 5074000.0 }, "geometry": { "type": "Point", "coordinates": [ 150.6182, -24.3449 ] } },
{ "type": "Feature", "id": 230, "properties": { "asset_id": 1670240, "year": 2021, "country": "Australia", "original_inventory_sector": "electricity-generation", "asset_name": "Stanwell power station", "asset_type": "coal", "emissions_quantity": 7383000.0 }, "geometry": { "type": "Point", "coordinates": [ 150.3178, -23.5091 ] } },
{ "type": "Feature", "id": 231, "properties": { "asset_id": 1670405, "year": 2021, "country": "China", "original_inventory_sector": "electricity-generation", "asset_name": "Zhoukou Longda power station", "asset_type": "coal", "emissions_quantity": 6351000.0 }, "geometry": { "type": "Point", "coordinates": [ 114.5342, 33.5635 ] } },
{ "type": "Feature", "id": 232, "properties": { "asset_id": 1670053, "year": 2021, "country": "China", "original_inventory_sector": "electricity-generation", "asset_name": "Ganneng Fengcheng power station", "asset_type": "coal", "emissions_quantity": 12894000.0 }, "geometry": { "type": "Point", "coordinates": [ 115.7088, 28.1944 ] } },
{ "type": "Feature", "id": 233, "properties": { "asset_id": 1670080, "year": 2021, "country": "China", "original_inventory_sector": "electricity-generation", "asset_name": "Hanchuan power station", "asset_type": "coal", "emissions_quantity": 15270000.0 }, "geometry": { "type": "Point", "coordinates": [ 113.9173, 30.6566 ] } },
{ "type": "Feature", "id": 234, "properties": { "asset_id": 11987500, "year": 2021, "country": "China", "original_inventory_sector": "electricity-generation", "asset_name": "Hebi Fenghe power station", "asset_type": "coal", "emissions_quantity": 6914000.0 }, "geometry": { "type": "Point", "coordinates": [ 114.1798, 35.8514 ] } },
{ "type": "Feature", "id": 235, "properties": { "asset_id": 1670261, "year": 2021, "country": "China", "original_inventory_sector": "electricity-generation", "asset_name": "Jinzhushan power station", "asset_type": "coal", "emissions_quantity": 8673000.0 }, "geometry": { "type": "Point", "coordinates": [ 111.4824, 27.6253 ] } },
{ "type": "Feature", "id": 236, "properties": { "asset_id": 1670267, "year": 2021, "country": "China", "original_inventory_sector": "electricity-generation", "asset_name": "Guodian Jiujiang power station", "asset_type": "coal", "emissions_quantity": 6509000.0 }, "geometry": { "type": "Point", "coordinates": [ 116.0345, 29.741 ] } },
{ "type": "Feature", "id": 237, "properties": { "asset_id": 1670369, "year": 2021, "country": "China", "original_inventory_sector": "electricity-generation", "asset_name": "Huaneng Anyuan power station", "asset_type": "coal", "emissions_quantity": 6315000.0 }, "geometry": { "type": "Point", "coordinates": [ 114.0058, 27.642 ] } },
{ "type": "Feature", "id": 238, "properties": { "asset_id": 1670067, "year": 2021, "country": "China", "original_inventory_sector": "electricity-generation", "asset_name": "Huadian Xiangyang power station", "asset_type": "coal", "emissions_quantity": 12509000.0 }, "geometry": { "type": "Point", "coordinates": [ 112.1669, 31.9118 ] } },
{ "type": "Feature", "id": 239, "properties": { "asset_id": 1670245, "year": 2021, "country": "China", "original_inventory_sector": "electricity-generation", "asset_name": "Nanyang Yahekou power station", "asset_type": "coal", "emissions_quantity": 8214000.0 }, "geometry": { "type": "Point", "coordinates": [ 112.6445, 33.3086 ] } },
{ "type": "Feature", "id": 240, "properties": { "asset_id": 1670349, "year": 2021, "country": "China", "original_inventory_sector": "electricity-generation", "asset_name": "Yaomeng power station", "asset_type": "coal", "emissions_quantity": 7672000.0 }, "geometry": { "type": "Point", "coordinates": [ 113.2419, 33.738 ] } },
{ "type": "Feature", "id": 241, "properties": { "asset_id": 1670242, "year": 2021, "country": "Japan", "original_inventory_sector": "electricity-generation", "asset_name": "Hekinan power station", "asset_type": "coal", "emissions_quantity": 15477000.0 }, "geometry": { "type": "Point", "coordinates": [ 136.9593, 34.8346 ] } },
{ "type": "Feature", "id": 242, "properties": { "asset_id": 1670227, "year": 2021, "country": "Japan", "original_inventory_sector": "electricity-generation", "asset_name": "Kawagoe thermal power station", "asset_type": "gas", "emissions_quantity": 7579000.0 }, "geometry": { "type": "Point", "coordinates": [ 136.6873, 35.0079 ] } },
{ "type": "Feature", "id": 243, "properties": { "asset_id": 1670070, "year": 2021, "country": "India", "original_inventory_sector": "electricity-generation", "asset_name": "Mejia power station", "asset_type": "coal", "emissions_quantity": 11198000.0 }, "geometry": { "type": "Point", "coordinates": [ 87.1311, 23.4639 ] } },
{ "type": "Feature", "id": 244, "properties": { "asset_id": 1670305, "year": 2021, "country": "Australia", "original_inventory_sector": "electricity-generation", "asset_name": "Mount Piper power station", "asset_type": "coal", "emissions_quantity": 6887000.0 }, "geometry": { "type": "Point", "coordinates": [ 150.032, -33.3581 ] } },
{ "type": "Feature", "id": 245, "properties": { "asset_id": 1670360, "year": 2021, "country": "China", "original_inventory_sector": "electricity-generation", "asset_name": "Huaneng Changxing power station", "asset_type": "coal", "emissions_quantity": 6299000.0 }, "geometry": { "type": "Point", "coordinates": [ 119.9632, 30.9144 ] } },
{ "type": "Feature", "id": 246, "properties": { "asset_id": 1670201, "year": 2021, "country": "China", "original_inventory_sector": "electricity-generation", "asset_name": "Jianbi power station", "asset_type": "coal", "emissions_quantity": 10694000.0 }, "geometry": { "type": "Point", "coordinates": [ 119.5755, 32.1769 ] } },
{ "type": "Feature", "id": 247, "properties": { "asset_id": 1669975, "year": 2021, "country": "China", "original_inventory_sector": "electricity-generation", "asset_name": "Shidongkou power station", "asset_type": "coal", "emissions_quantity": 19632000.0 }, "geometry": { "type": "Point", "coordinates": [ 121.4048, 31.4651 ] } },
{ "type": "Feature", "id": 248, "properties": { "asset_id": 11987524, "year": 2021, "country": "China", "original_inventory_sector": "electricity-generation", "asset_name": "Guohua Xuzhou power station", "asset_type": "coal", "emissions_quantity": 8120000.0 }, "geometry": { "type": "Point", "coordinates": [ 117.2576, 34.3858 ] } },
{ "type": "Feature", "id": 249, "properties": { "asset_id": 1670408, "year": 2021, "country": "China", "original_inventory_sector": "electricity-generation", "asset_name": "Zhejiang Zhenhai power station", "asset_type": "coal", "emissions_quantity": 6351000.0 }, "geometry": { "type": "Point", "coordinates": [ 121.6881, 29.944 ] } },
{ "type": "Feature", "id": 250, "properties": { "asset_id": 1670417, "year": 2021, "country": "China", "original_inventory_sector": "electricity-generation", "asset_name": "Laibin power station", "asset_type": "coal", "emissions_quantity": 6351000.0 }, "geometry": { "type": "Point", "coordinates": [ 109.1629, 23.6949 ] } },
{ "type": "Feature", "id": 251, "properties": { "asset_id": 11987586, "year": 2021, "country": "Japan", "original_inventory_sector": "electricity-generation", "asset_name": "Nakoso power station", "asset_type": "coal", "emissions_quantity": 8738000.0 }, "geometry": { "type": "Point", "coordinates": [ 140.8128, 36.9128 ] } },
{ "type": "Feature", "id": 252, "properties": { "asset_id": 1670026, "year": 2021, "country": "Australia", "original_inventory_sector": "electricity-generation", "asset_name": "Bayswater power station", "asset_type": "coal", "emissions_quantity": 12732000.0 }, "geometry": { "type": "Point", "coordinates": [ 150.9501, -32.394 ] } },
{ "type": "Feature", "id": 253, "properties": { "asset_id": 16332464, "year": 2021, "country": "Japan", "original_inventory_sector": "electricity-generation", "asset_name": "Matsuura Kyushu power station", "asset_type": "coal", "emissions_quantity": 11932000.0 }, "geometry": { "type": "Point", "coordinates": [ 129.6876, 33.3534 ] } },
{ "type": "Feature", "id": 254, "properties": { "asset_id": 16332465, "year": 2021, "country": "Japan", "original_inventory_sector": "electricity-generation", "asset_name": "J-POWER Tachibana-wan power station", "asset_type": "coal", "emissions_quantity": 7065000.0 }, "geometry": { "type": "Point", "coordinates": [ 134.6513, 33.8586 ] } },
{ "type": "Feature", "id": 255, "properties": { "asset_id": 1670263, "year": 2021, "country": "Japan", "original_inventory_sector": "electricity-generation", "asset_name": "Takehara power station", "asset_type": "coal", "emissions_quantity": 7249000.0 }, "geometry": { "type": "Point", "coordinates": [ 132.9572, 34.3373 ] } },
{ "type": "Feature", "id": 256, "properties": { "asset_id": 1670137, "year": 2021, "country": "Poland", "original_inventory_sector": "electricity-generation", "asset_name": "Jaworzno-3 power station", "asset_type": "coal", "emissions_quantity": 9125000.0 }, "geometry": { "type": "Point", "coordinates": [ 19.2053, 50.2072 ] } },
{ "type": "Feature", "id": 257, "properties": { "asset_id": 1669979, "year": 2021, "country": "Poland", "original_inventory_sector": "electricity-generation", "asset_name": "Opole power station", "asset_type": "coal", "emissions_quantity": 15230000.0 }, "geometry": { "type": "Point", "coordinates": [ 17.8845, 50.7514 ] } },
{ "type": "Feature", "id": 258, "properties": { "asset_id": 11987545, "year": 2021, "country": "Poland", "original_inventory_sector": "electricity-generation", "asset_name": "Rybnik power station", "asset_type": "coal", "emissions_quantity": 5523000.0 }, "geometry": { "type": "Point", "coordinates": [ 18.522, 50.1341 ] } },
{ "type": "Feature", "id": 259, "properties": { "asset_id": 1670273, "year": 2021, "country": "Poland", "original_inventory_sector": "electricity-generation", "asset_name": "Turów power station", "asset_type": "coal", "emissions_quantity": 8482000.0 }, "geometry": { "type": "Point", "coordinates": [ 14.9131, 50.9486 ] } },
{ "type": "Feature", "id": 260, "properties": { "asset_id": 1670045, "year": 2021, "country": "South Africa", "original_inventory_sector": "electricity-generation", "asset_name": "Arnot power station", "asset_type": "coal", "emissions_quantity": 10537000.0 }, "geometry": { "type": "Point", "coordinates": [ 29.792, -25.9438 ] } },
{ "type": "Feature", "id": 261, "properties": { "asset_id": 11987548, "year": 2021, "country": "South Africa", "original_inventory_sector": "electricity-generation", "asset_name": "Camden power station", "asset_type": "coal", "emissions_quantity": 6330000.0 }, "geometry": { "type": "Point", "coordinates": [ 30.0901, -26.6215 ] } },
{ "type": "Feature", "id": 262, "properties": { "asset_id": 1670027, "year": 2021, "country": "South Africa", "original_inventory_sector": "electricity-generation", "asset_name": "Duvha power station", "asset_type": "coal", "emissions_quantity": 12387000.0 }, "geometry": { "type": "Point", "coordinates": [ 29.3397, -25.9613 ] } },
{ "type": "Feature", "id": 263, "properties": { "asset_id": 1669988, "year": 2021, "country": "South Africa", "original_inventory_sector": "electricity-generation", "asset_name": "Kriel power station", "asset_type": "coal", "emissions_quantity": 14806000.0 }, "geometry": { "type": "Point", "coordinates": [ 29.1785, -26.2539 ] } },
{ "type": "Feature", "id": 264, "properties": { "asset_id": 1669951, "year": 2021, "country": "South Africa", "original_inventory_sector": "electricity-generation", "asset_name": "Lethabo power station", "asset_type": "coal", "emissions_quantity": 20274000.0 }, "geometry": { "type": "Point", "coordinates": [ 27.9769, -26.742 ] } },
{ "type": "Feature", "id": 265, "properties": { "asset_id": 1669944, "year": 2021, "country": "South Africa", "original_inventory_sector": "electricity-generation", "asset_name": "Majuba power station", "asset_type": "coal", "emissions_quantity": 21984000.0 }, "geometry": { "type": "Point", "coordinates": [ 29.771, -27.1006 ] } },
{ "type": "Feature", "id": 266, "properties": { "asset_id": 1669952, "year": 2021, "country": "South Africa", "original_inventory_sector": "electricity-generation", "asset_name": "Matla power station", "asset_type": "coal", "emissions_quantity": 18442000.0 }, "geometry": { "type": "Point", "coordinates": [ 29.1415, -26.2813 ] } },
{ "type": "Feature", "id": 267, "properties": { "asset_id": 1669985, "year": 2021, "country": "South Africa", "original_inventory_sector": "electricity-generation", "asset_name": "Tutuka power station", "asset_type": "coal", "emissions_quantity": 15143000.0 }, "geometry": { "type": "Point", "coordinates": [ 29.3524, -26.7772 ] } },
{ "type": "Feature", "id": 268, "properties": { "asset_id": 11987558, "year": 2021, "country": "China", "original_inventory_sector": "electricity-generation", "asset_name": "Guangdong Shajiao power complex", "asset_type": "coal", "emissions_quantity": 8170000.0 }, "geometry": { "type": "Point", "coordinates": [ 113.6775, 22.7478 ] } },
{ "type": "Feature", "id": 269, "properties": { "asset_id": 1670012, "year": 2021, "country": "China", "original_inventory_sector": "electricity-generation", "asset_name": "Guohua Taishan power station", "asset_type": "coal", "emissions_quantity": 20761000.0 }, "geometry": { "type": "Point", "coordinates": [ 112.9228, 21.8667 ] } },
{ "type": "Feature", "id": 270, "properties": { "asset_id": 11987560, "year": 2021, "country": "India", "original_inventory_sector": "electricity-generation", "asset_name": "Wanakbori Thermal Power Station", "asset_type": "coal", "emissions_quantity": 8657000.0 }, "geometry": { "type": "Point", "coordinates": [ 73.3605, 22.8776 ] } },
{ "type": "Feature", "id": 271, "properties": { "asset_id": 1670435, "year": 2021, "country": "China", "original_inventory_sector": "electricity-generation", "asset_name": "Sanhe Yanjiao power station", "asset_type": "coal", "emissions_quantity": 6254000.0 }, "geometry": { "type": "Point", "coordinates": [ 116.848, 39.9533 ] } },
{ "type": "Feature", "id": 272, "properties": { "asset_id": 1670185, "year": 2021, "country": "China", "original_inventory_sector": "electricity-generation", "asset_name": "Datang Qitaihe power station", "asset_type": "coal", "emissions_quantity": 8630000.0 }, "geometry": { "type": "Point", "coordinates": [ 131.0533, 45.7604 ] } },
{ "type": "Feature", "id": 273, "properties": { "asset_id": 1670199, "year": 2021, "country": "China", "original_inventory_sector": "electricity-generation", "asset_name": "Huainan Luohe power station", "asset_type": "coal", "emissions_quantity": 10216000.0 }, "geometry": { "type": "Point", "coordinates": [ 117.0751, 32.6846 ] } },
{ "type": "Feature", "id": 274, "properties": { "asset_id": 1670009, "year": 2021, "country": "China", "original_inventory_sector": "electricity-generation", "asset_name": "Huaneng Qinbei power station", "asset_type": "coal", "emissions_quantity": 17686000.0 }, "geometry": { "type": "Point", "coordinates": [ 112.7165, 35.1676 ] } },
{ "type": "Feature", "id": 275, "properties": { "asset_id": 1670138, "year": 2021, "country": "Japan", "original_inventory_sector": "electricity-generation", "asset_name": "Tomatouatsuma power station", "asset_type": "coal", "emissions_quantity": 9200000.0 }, "geometry": { "type": "Point", "coordinates": [ 141.8054, 42.6118 ] } },
{ "type": "Feature", "id": 276, "properties": { "asset_id": 16332497, "year": 2021, "country": "Hong Kong SAR China", "original_inventory_sector": "electricity-generation", "asset_name": "CKI Lamma power station", "asset_type": "coal", "emissions_quantity": 11688000.0 }, "geometry": { "type": "Point", "coordinates": [ 114.1082, 22.2189 ] } },
{ "type": "Feature", "id": 277, "properties": { "asset_id": 1670082, "year": 2021, "country": "China", "original_inventory_sector": "electricity-generation", "asset_name": "SDIC Qinzhou power station", "asset_type": "coal", "emissions_quantity": 13770000.0 }, "geometry": { "type": "Point", "coordinates": [ 108.6243, 21.7005 ] } },
{ "type": "Feature", "id": 278, "properties": { "asset_id": 1670310, "year": 2021, "country": "China", "original_inventory_sector": "electricity-generation", "asset_name": "Huaneng Dalian power station", "asset_type": "coal", "emissions_quantity": 7217000.0 }, "geometry": { "type": "Point", "coordinates": [ 121.7244, 39.0142 ] } },
{ "type": "Feature", "id": 279, "properties": { "asset_id": 1670160, "year": 2021, "country": "China", "original_inventory_sector": "electricity-generation", "asset_name": "Huaneng Fuzhou power station", "asset_type": "coal", "emissions_quantity": 11366000.0 }, "geometry": { "type": "Point", "coordinates": [ 119.4816, 25.9908 ] } },
{ "type": "Feature", "id": 280, "properties": { "asset_id": 1670203, "year": 2021, "country": "China", "original_inventory_sector": "electricity-generation", "asset_name": "Huaneng Luohuang power station", "asset_type": "coal", "emissions_quantity": 11841000.0 }, "geometry": { "type": "Point", "coordinates": [ 106.4332, 29.3474 ] } },
{ "type": "Feature", "id": 281, "properties": { "asset_id": 1670154, "year": 2021, "country": "China", "original_inventory_sector": "electricity-generation", "asset_name": "Jiangsu Nantong power station", "asset_type": "coal", "emissions_quantity": 10920000.0 }, "geometry": { "type": "Point", "coordinates": [ 120.7696, 32.0321 ] } },
{ "type": "Feature", "id": 282, "properties": { "asset_id": 1670182, "year": 2021, "country": "China", "original_inventory_sector": "electricity-generation", "asset_name": "Huaneng Shang'an power station", "asset_type": "coal", "emissions_quantity": 9556000.0 }, "geometry": { "type": "Point", "coordinates": [ 114.1963, 38.0573 ] } },
{ "type": "Feature", "id": 283, "properties": { "asset_id": 1669997, "year": 2021, "country": "China", "original_inventory_sector": "electricity-generation", "asset_name": "Huaneng Yimin power station", "asset_type": "coal", "emissions_quantity": 15684000.0 }, "geometry": { "type": "Point", "coordinates": [ 119.7739, 48.5497 ] } },
{ "type": "Feature", "id": 284, "properties": { "asset_id": 1670304, "year": 2021, "country": "China", "original_inventory_sector": "electricity-generation", "asset_name": "Huaneng Yingkou power station", "asset_type": "coal", "emissions_quantity": 7976000.0 }, "geometry": { "type": "Point", "coordinates": [ 122.106, 40.3038 ] } },
{ "type": "Feature", "id": 285, "properties": { "asset_id": 1670161, "year": 2021, "country": "China", "original_inventory_sector": "electricity-generation", "asset_name": "Huaneng Yueyang power station", "asset_type": "coal", "emissions_quantity": 10776000.0 }, "geometry": { "type": "Point", "coordinates": [ 113.1623, 29.4498 ] } },
{ "type": "Feature", "id": 286, "properties": { "asset_id": 1670105, "year": 2021, "country": "China", "original_inventory_sector": "electricity-generation", "asset_name": "Tieling power station", "asset_type": "coal", "emissions_quantity": 10146000.0 }, "geometry": { "type": "Point", "coordinates": [ 123.803, 42.345 ] } },
{ "type": "Feature", "id": 287, "properties": { "asset_id": 1670008, "year": 2021, "country": "China", "original_inventory_sector": "electricity-generation", "asset_name": "Hubei Ezhou power station", "asset_type": "coal", "emissions_quantity": 18878000.0 }, "geometry": { "type": "Point", "coordinates": [ 114.642, 30.5518 ] } },
{ "type": "Feature", "id": 288, "properties": { "asset_id": 1670217, "year": 2021, "country": "China", "original_inventory_sector": "electricity-generation", "asset_name": "Xiangtan power station", "asset_type": "coal", "emissions_quantity": 8660000.0 }, "geometry": { "type": "Point", "coordinates": [ 112.9968, 27.8283 ] } },
{ "type": "Feature", "id": 289, "properties": { "asset_id": 1670251, "year": 2021, "country": "Israel", "original_inventory_sector": "electricity-generation", "asset_name": "Rutenberg power station", "asset_type": "coal", "emissions_quantity": 7536000.0 }, "geometry": { "type": "Point", "coordinates": [ 34.5202, 31.6307 ] } },
{ "type": "Feature", "id": 290, "properties": { "asset_id": 1670266, "year": 2021, "country": "China", "original_inventory_sector": "electricity-generation", "asset_name": "Yangzhou-2 power station", "asset_type": "coal", "emissions_quantity": 9622000.0 }, "geometry": { "type": "Point", "coordinates": [ 119.4194, 32.2678 ] } },
{ "type": "Feature", "id": 291, "properties": { "asset_id": 16332518, "year": 2021, "country": "Japan", "original_inventory_sector": "electricity-generation", "asset_name": "Maizuru power station", "asset_type": "coal", "emissions_quantity": 6778000.0 }, "geometry": { "type": "Point", "coordinates": [ 135.3423, 35.5277 ] } },
{ "type": "Feature", "id": 292, "properties": { "asset_id": 1670342, "year": 2021, "country": "China", "original_inventory_sector": "electricity-generation", "asset_name": "Jingdezhen power station", "asset_type": "coal", "emissions_quantity": 6174000.0 }, "geometry": { "type": "Point", "coordinates": [ 117.085, 29.1872 ] } },
{ "type": "Feature", "id": 293, "properties": { "asset_id": 1670308, "year": 2021, "country": "Japan", "original_inventory_sector": "electricity-generation", "asset_name": "Himeji Daini power station", "asset_type": "gas", "emissions_quantity": 3921000.0 }, "geometry": { "type": "Point", "coordinates": [ 134.6889, 34.7722 ] } },
{ "type": "Feature", "id": 294, "properties": { "asset_id": 16332519, "year": 2021, "country": "India", "original_inventory_sector": "electricity-generation", "asset_name": "Raichur Thermal Power Station", "asset_type": "coal", "emissions_quantity": 5831000.0 }, "geometry": { "type": "Point", "coordinates": [ 77.3422, 16.3532 ] } },
{ "type": "Feature", "id": 295, "properties": { "asset_id": 1670220, "year": 2021, "country": "South Korea", "original_inventory_sector": "electricity-generation", "asset_name": "Hadong power station", "asset_type": "coal", "emissions_quantity": 14642000.0 }, "geometry": { "type": "Point", "coordinates": [ 127.8199, 34.9524 ] } },
{ "type": "Feature", "id": 296, "properties": { "asset_id": 1670439, "year": 2021, "country": "South Korea", "original_inventory_sector": "electricity-generation", "asset_name": "POSCO Incheon power station", "asset_type": "gas", "emissions_quantity": 7537000.0 }, "geometry": { "type": "Point", "coordinates": [ 126.609, 37.5109 ] } },
{ "type": "Feature", "id": 297, "properties": { "asset_id": 1669978, "year": 2021, "country": "South Korea", "original_inventory_sector": "electricity-generation", "asset_name": "Boryeong power station", "asset_type": "coal", "emissions_quantity": 17555000.0 }, "geometry": { "type": "Point", "coordinates": [ 126.4908, 36.4009 ] } },
{ "type": "Feature", "id": 298, "properties": { "asset_id": 16332524, "year": 2021, "country": "South Korea", "original_inventory_sector": "electricity-generation", "asset_name": "Samchonpo power station", "asset_type": "coal", "emissions_quantity": 7112000.0 }, "geometry": { "type": "Point", "coordinates": [ 128.1084, 34.9107 ] } },
{ "type": "Feature", "id": 299, "properties": { "asset_id": 1670023, "year": 2021, "country": "South Korea", "original_inventory_sector": "electricity-generation", "asset_name": "Yeongheung power station", "asset_type": "coal", "emissions_quantity": 19006000.0 }, "geometry": { "type": "Point", "coordinates": [ 126.4361, 37.2369 ] } },
{ "type": "Feature", "id": 300, "properties": { "asset_id": 16332528, "year": 2021, "country": "Russia", "original_inventory_sector": "electricity-generation", "asset_name": "Nazarovskaya power station", "asset_type": "coal", "emissions_quantity": 6252000.0 }, "geometry": { "type": "Point", "coordinates": [ 90.3456, 56.039 ] } },
{ "type": "Feature", "id": 301, "properties": { "asset_id": 16332532, "year": 2021, "country": "Russia", "original_inventory_sector": "electricity-generation", "asset_name": "Tom-Usinskaya power station", "asset_type": "coal", "emissions_quantity": 6449000.0 }, "geometry": { "type": "Point", "coordinates": [ 87.5874, 53.7814 ] } },